{"business_id":"TacYUYhU3HpLHF9Rs6fW2w","name":"Steps to Learning Montessori Preschool","address":"6901 Phelps Rd","city":"Goleta","state":"CA","postal_code":"93117","latitude":34.423311,"longitude":-119.870637,"stars":4.5,"review_count":8,"is_open":1,"attributes":{"BusinessAcceptsCreditCards":"True","WiFi":"u'no'","BusinessAcceptsBitcoin":"False"},"categories":"Education, Elementary Schools, Child Care & Day Care, Local Services, Preschools, Montessori Schools","hours":{"Monday":"0:0-0:0","Tuesday":"8:0-17:0","Wednesday":"8:0-17:0","Thursday":"8:0-17:0","Friday":"8:0-17:0"}}
{"business_id":"RnExaICvIeXxFpbIKEqJsQ","name":"Breeze Blow Dry Bar","address":"9916 Clayton Rd","city":"St. Louis","state":"MO","postal_code":"63124","latitude":38.6367165,"longitude":-90.393139,"stars":4.0,"review_count":81,"is_open":0,"attributes":{"ByAppointmentOnly":"False","BusinessAcceptsCreditCards":"True","GoodForKids":"True","RestaurantsPriceRange2":"2","BikeParking":"False","BusinessParking":"{'garage': False, 'street': False, 'validated': False, 'lot': True, 'valet': False}"},"categories":"Hair Salons, Beauty & Spas, Hair Stylists, Skin Care, Blow Dry\/Out Services, Makeup Artists","hours":{"Monday":"7:0-18:0","Tuesday":"7:0-18:0","Wednesday":"7:0-18:0","Thursday":"7:0-18:0","Friday":"7:0-19:0","Saturday":"8:0-19:0","Sunday":"10:0-17:0"}}
{"business_id":"pjtjBeZC3gvmtIiIQt-DFA","name":"Impact Guns","address":"11655 W Executive Dr","city":"Boise","state":"ID","postal_code":"83713","latitude":43.6087,"longitude":-116.328,"stars":3.0,"review_count":39,"is_open":1,"attributes":{"BusinessParking":"{'garage': False, 'street': False, 'validated': False, 'lot': False, 'valet': False}","GoodForKids":"True","BusinessAcceptsCreditCards":"True","ByAppointmentOnly":"False","BikeParking":"True"},"categories":"Gun\/Rifle Ranges, Active Life","hours":{"Monday":"10:0-19:0","Tuesday":"10:0-19:0","Wednesday":"10:0-19:0","Thursday":"10:0-19:0","Friday":"10:0-19:0","Saturday":"10:0-19:0"}}
{"business_id":"OMl5pTUBVUjW_jvDKLvYtw","name":"Palms Primary Care","address":"1615 Pasadena Ave S, Ste 430","city":"Saint Petersburg","state":"FL","postal_code":"33707","latitude":27.7526527,"longitude":-82.7413248,"stars":4.0,"review_count":5,"is_open":1,"attributes":null,"categories":"Internal Medicine, Doctors, Health & Medical","hours":{"Monday":"8:30-17:0","Tuesday":"8:30-17:0","Wednesday":"8:30-17:0","Thursday":"8:30-17:0","Friday":"8:30-17:0"}}
{"business_id":"MO-LTDfO843xaRtW0bx6jQ","name":"J&Q Nails","address":"9655 E US Hwy 36, Unit H","city":"Avon","state":"IN","postal_code":"46123","latitude":39.763059,"longitude":-86.3522796,"stars":3.5,"review_count":28,"is_open":1,"attributes":{"BusinessParking":"{'garage': False, 'street': False, 'validated': False, 'lot': False, 'valet': False}","BusinessAcceptsCreditCards":"True","AcceptsInsurance":"False","ByAppointmentOnly":"False","RestaurantsPriceRange2":"2","WheelchairAccessible":"True","BikeParking":"False"},"categories":"Nail Salons, Hair Removal, Beauty & Spas, Waxing","hours":{"Monday":"9:30-19:0","Tuesday":"9:30-19:0","Wednesday":"9:30-19:0","Thursday":"9:30-19:0","Friday":"9:30-19:0","Saturday":"9:30-17:30"}}
{"business_id":"jFq8QSWDwtAWMA1FaNvRhw","name":"Candy Barrel","address":"735 Dodecanese Blvd","city":"Tarpon Springs","state":"FL","postal_code":"34689","latitude":28.155075,"longitude":-82.760848,"stars":3.0,"review_count":7,"is_open":1,"attributes":{"BusinessParking":"{'garage': False, 'street': False, 'validated': False, 'lot': False, 'valet': False}","RestaurantsPriceRange2":"4","BikeParking":"False"},"categories":"Candy Stores, Specialty Food, Food","hours":null}
{"business_id":"t53MqkLTtWxJ7jMSqXYz-g","name":"Luminosity","address":"690 W Dekalb Pike","city":"King of Prussia","state":"PA","postal_code":"19406","latitude":40.0894978985,"longitude":-75.3957366943,"stars":4.5,"review_count":39,"is_open":1,"attributes":{"ByAppointmentOnly":"False","BusinessAcceptsCreditCards":"True","BusinessParking":"{'garage': True, 'street': False, 'validated': False, 'lot': False, 'valet': False}","RestaurantsPriceRange2":"2","WheelchairAccessible":"True","BikeParking":"True","NoiseLevel":"u'quiet'","WiFi":"u'no'"},"categories":"Cosmetics & Beauty Supply, Cosmetic Dentists, Tanning, Teeth Whitening, Beauty & Spas, Dentists, Shopping, Blow Dry\/Out Services, Health & Medical, Spray Tanning, Hair Salons","hours":{"Monday":"10:0-21:0","Tuesday":"10:0-21:0","Wednesday":"10:0-21:0","Thursday":"10:0-21:0","Friday":"10:0-21:0","Saturday":"10:0-21:0","Sunday":"11:0-18:0"}}
{"business_id":"dY6rzL7Gw1U5afOskTlMmg","name":"Nail Care Salon","address":"12337 Olive Blvd","city":"Creve Coeur","state":"MO","postal_code":"63141","latitude":38.6735413,"longitude":-90.4564283,"stars":4.0,"review_count":6,"is_open":1,"attributes":{"BusinessParking":"{'garage': True, 'street': False, 'validated': False, 'lot': True, 'valet': False}","ByAppointmentOnly":"False","BusinessAcceptsCreditCards":"True","RestaurantsPriceRange2":"2","BikeParking":"True","WiFi":"u'free'"},"categories":"Nail Salons, Beauty & Spas","hours":{"Monday":"10:0-20:0","Tuesday":"10:0-20:0","Wednesday":"10:0-20:0","Thursday":"10:0-20:0","Friday":"10:0-20:0","Saturday":"10:0-19:0"}}
{"business_id":"VIJ4wKPf2TmKbaOTKYHROg","name":"Architectural Antiques of Indianapolis","address":"5000 W 96th St","city":"Indianapolis","state":"IN","postal_code":"46268","latitude":39.926223,"longitude":-86.2451899,"stars":4.0,"review_count":6,"is_open":1,"attributes":{"ByAppointmentOnly":"False","BusinessAcceptsCreditCards":"True","BusinessParking":"{'garage': False, 'street': False, 'validated': False, 'lot': False, 'valet': False}","RestaurantsPriceRange2":"2","BikeParking":"True"},"categories":"Antiques, Shopping, Home Services, Lighting Fixtures & Equipment","hours":{"Monday":"10:0-17:0","Tuesday":"10:0-17:0","Wednesday":"10:0-17:0","Thursday":"10:0-17:0","Friday":"10:0-17:0","Saturday":"10:0-17:0"}}
{"business_id":"IuKCyfSY7AKhRbRA1JPlPw","name":"Aster's Floral Shop","address":"41 Haddon Ave","city":"Collingswood","state":"NJ","postal_code":"08108","latitude":39.9155624277,"longitude":-75.0658452331,"stars":4.0,"review_count":25,"is_open":1,"attributes":{"BikeParking":"True","BusinessAcceptsCreditCards":"True","RestaurantsPriceRange2":"2","BusinessParking":"{'garage': False, 'street': True, 'validated': False, 'lot': False, 'valet': False}","RestaurantsDelivery":"None"},"categories":"Wedding Planning, Flowers & Gifts, Event Planning & Services, Financial Services, Shopping, Florists","hours":{"Monday":"9:0-18:0","Tuesday":"9:0-18:0","Wednesday":"9:0-18:0","Thursday":"9:0-18:0","Friday":"9:0-18:0","Saturday":"9:0-18:0"}}
{"business_id":"6XOn1p3sbO22UjJGpmCgxg","name":"China Wok","address":"4319 Telegraph Rd","city":"Saint Louis","state":"MO","postal_code":"63129","latitude":38.486761,"longitude":-90.304813,"stars":4.5,"review_count":20,"is_open":1,"attributes":{"RestaurantsGoodForGroups":"True","RestaurantsDelivery":"False","RestaurantsTakeOut":"True","HasTV":"True","BusinessAcceptsCreditCards":"True","Ambience":"{'touristy': False, 'hipster': False, 'romantic': False, 'divey': False, 'intimate': False, 'trendy': False, 'upscale': False, 'classy': False, 'casual': False}","GoodForMeal":"{'dessert': False, 'latenight': False, 'lunch': False, 'dinner': False, 'brunch': False, 'breakfast': False}","BusinessParking":"{u'valet': False, u'garage': False, u'street': False, u'lot': True, u'validated': False}"},"categories":"Restaurants, Chinese","hours":null}
{"business_id":"c8d8h47cogM_B_ZMC-h3zg","name":"Brandon Family Medical Care","address":"1218 Millennium Pkwy","city":"Brandon","state":"FL","postal_code":"33511","latitude":27.9294402,"longitude":-82.3012215,"stars":2.5,"review_count":17,"is_open":1,"attributes":{"ByAppointmentOnly":"True","BusinessAcceptsCreditCards":"True"},"categories":"Medical Centers, Health & Medical","hours":{"Monday":"8:0-17:0","Tuesday":"8:0-17:0","Wednesday":"8:0-17:0","Thursday":"12:0-20:0","Friday":"8:30-17:0"}}
{"business_id":"YEwmI50bso_LYtuivsdwiA","name":"7-Eleven","address":"13151 Race Track Rd","city":"Tampa","state":"FL","postal_code":"33626","latitude":28.070273,"longitude":-82.6305434,"stars":3.5,"review_count":10,"is_open":1,"attributes":{"BusinessParking":"{'garage': False, 'street': False, 'validated': False, 'lot': False, 'valet': False}","BusinessAcceptsCreditCards":"True","WheelchairAccessible":"True","RestaurantsDelivery":"True","RestaurantsTakeOut":"True","RestaurantsPriceRange2":"1","WiFi":"u'free'"},"categories":"Service Stations, Coffee & Tea, Gas Stations, Automotive, Gas Stations, Food, Convenience Stores","hours":{"Monday":"0:0-0:0","Tuesday":"0:0-0:0","Wednesday":"0:0-0:0","Thursday":"0:0-0:0","Friday":"0:0-0:0","Saturday":"0:0-0:0","Sunday":"0:0-0:0"}}
{"business_id":"6IG4SysBKyRnFW_e22q13A","name":"Uber","address":"","city":"Philadelphia","state":"PA","postal_code":"19107","latitude":39.9559288,"longitude":-75.1574567,"stars":3.0,"review_count":218,"is_open":1,"attributes":{"BusinessAcceptsCreditCards":"True"},"categories":"Hotels & Travel, Taxis, Transportation, Local Services, Automotive","hours":{"Monday":"0:0-0:0","Tuesday":"0:0-0:0","Wednesday":"0:0-0:0","Thursday":"0:0-0:0","Friday":"0:0-0:0"}}
{"business_id":"bNBi-RVlx71bugXY0GRLtQ","name":"Chestnut St. Cafe","address":"4403 Chestnut St","city":"Philadelphia","state":"PA","postal_code":"19104","latitude":39.956725,"longitude":-75.2099251,"stars":4.5,"review_count":34,"is_open":0,"attributes":{"BusinessParking":"{'garage': False, 'street': True, 'validated': False, 'lot': False, 'valet': False}","RestaurantsTakeOut":"None","RestaurantsDelivery":"None","HasTV":"True","Ambience":"{'touristy': False, 'hipster': None, 'romantic': None, 'divey': None, 'intimate': None, 'trendy': None, 'upscale': False, 'classy': None, 'casual': True}","GoodForMeal":"{'dessert': False, 'latenight': False, 'lunch': False, 'dinner': False, 'brunch': False, 'breakfast': False}"},"categories":"Food, Bubble Tea, Restaurants, Sandwiches, Vietnamese, Cafes","hours":{"Monday":"11:0-19:0","Tuesday":"11:0-19:0","Wednesday":"11:0-19:0","Thursday":"11:0-19:0","Friday":"11:0-19:0","Saturday":"11:0-16:0"}}
{"business_id":"rbPK4jSyFS10zhWYvo_Srg","name":"Cafe Porche and snowbar","address":"1625 Baronne St","city":"New Orleans","state":"LA","postal_code":"70113","latitude":29.9393162215,"longitude":-90.0789387705,"stars":5.0,"review_count":172,"is_open":1,"attributes":{"BusinessParking":"{'garage': False, 'street': True, 'validated': False, 'lot': False, 'valet': False}","WiFi":"u'free'","WheelchairAccessible":"True","Caters":"True","HasTV":"True","HappyHour":"False","Ambience":"{'touristy': None, 'hipster': None, 'romantic': None, 'divey': None, 'intimate': True, 'trendy': None, 'upscale': None, 'classy': True, 'casual': True}","RestaurantsDelivery":"True","RestaurantsPriceRange2":"2","GoodForKids":"True","RestaurantsAttire":"u'casual'","BikeParking":"True","OutdoorSeating":"True","NoiseLevel":"u'quiet'","RestaurantsGoodForGroups":"True","RestaurantsTakeOut":"True","BusinessAcceptsCreditCards":"True","RestaurantsReservations":"False","GoodForMeal":"{'dessert': None, 'latenight': None, 'lunch': True, 'dinner': None, 'brunch': True, 'breakfast': True}","Alcohol":"u'beer_and_wine'","RestaurantsTableService":"True","Corkage":"False","BYOB":"True"},"categories":"Food, Shaved Ice, Cajun\/Creole, Breakfast & Brunch, Party & Event Planning, Comfort Food, Cafes, Restaurants, Event Planning & Services","hours":{"Monday":"0:0-0:0","Friday":"8:30-14:30","Saturday":"8:30-14:30","Sunday":"9:0-14:30"}}
{"business_id":"lrO5vOwa7gE0qAo0UQJYlA","name":"Eyeglass World","address":"13002 Seminole Blvd, Ste 10-11","city":"Largo","state":"FL","postal_code":"33778","latitude":27.891816,"longitude":-82.787797,"stars":5.0,"review_count":6,"is_open":1,"attributes":{"RestaurantsPriceRange2":"2","AcceptsInsurance":"True","BusinessAcceptsCreditCards":"True","BusinessParking":"None","ByAppointmentOnly":"False"},"categories":"Optometrists, Health & Medical, Eyewear & Opticians, Ophthalmologists, Doctors, Shopping","hours":{"Monday":"0:0-0:0","Tuesday":"9:0-18:0","Wednesday":"9:0-15:0","Thursday":"9:0-19:0","Friday":"9:0-19:0","Saturday":"9:0-18:0","Sunday":"9:0-15:0"}}
{"business_id":"thpDDcdKLPzSFldLLBULLA","name":"Callahan's Corner","address":"914 Edwardsville Rd","city":"Troy","state":"IL","postal_code":"62294","latitude":38.7329343,"longitude":-89.9159693,"stars":3.0,"review_count":10,"is_open":0,"attributes":{"RestaurantsGoodForGroups":"True","RestaurantsAttire":"u'casual'","BusinessAcceptsCreditCards":"True","RestaurantsPriceRange2":"1","Ambience":"{'romantic': False, 'intimate': False, 'touristy': False, 'hipster': False, 'divey': False, 'classy': False, 'trendy': False, 'upscale': False, 'casual': False}","RestaurantsReservations":"False","RestaurantsTakeOut":"True","WiFi":"u'free'","GoodForKids":"True","HasTV":"True","Alcohol":"u'full_bar'","BusinessParking":"{'garage': False, 'street': False, 'validated': False, 'lot': True, 'valet': False}","RestaurantsDelivery":"False","NoiseLevel":"u'average'","OutdoorSeating":"True"},"categories":"American (New), Nightlife, Bars, Restaurants, Sports Bars","hours":{"Monday":"11:0-1:30","Tuesday":"11:0-1:30","Wednesday":"11:0-1:30","Thursday":"11:0-1:30","Friday":"11:0-1:30","Saturday":"11:0-1:30","Sunday":"11:0-0:0"}}
{"business_id":"-EyRrBY1d-EQZrTIXWH4BQ","name":"Spa Guy Dave","address":"","city":"Pennsauken","state":"NJ","postal_code":"08109","latitude":39.9671069,"longitude":-75.0319086,"stars":4.5,"review_count":6,"is_open":1,"attributes":null,"categories":"Home Services, Pool & Hot Tub Service","hours":null}
{"business_id":"EkthrfcRWCVYy-NuvfNmPg","name":"FroYo Frozen Yogurt","address":"4663 Maryland Ave","city":"Saint Louis","state":"MO","postal_code":"63108","latitude":38.6448452,"longitude":-90.2613486,"stars":3.5,"review_count":43,"is_open":0,"attributes":{"BusinessAcceptsCreditCards":"True","RestaurantsPriceRange2":"1","WiFi":"u'no'","BikeParking":"True","BusinessParking":"{'garage': False, 'street': True, 'validated': False, 'lot': False, 'valet': False}","RestaurantsTakeOut":"True"},"categories":"Food, Ice Cream & Frozen Yogurt","hours":{"Monday":"13:0-21:0","Tuesday":"13:0-21:0","Wednesday":"13:0-21:0","Thursday":"13:0-21:0","Friday":"12:0-22:0","Saturday":"12:0-22:0","Sunday":"13:0-21:0"}}
{"business_id":"udjadmbL9mx5VXb7sKOdWg","name":"Subway","address":"201 Veterans Memorial Blvd","city":"Metairie","state":"LA","postal_code":"70005","latitude":30.0016843004,"longitude":-90.1248129767,"stars":2.5,"review_count":7,"is_open":1,"attributes":{"RestaurantsGoodForGroups":"False","RestaurantsPriceRange2":"1","BusinessAcceptsCreditCards":"True","RestaurantsTakeOut":"True","NoiseLevel":"u'quiet'","RestaurantsAttire":"'casual'","GoodForKids":"True","Ambience":"{'touristy': False, 'hipster': False, 'romantic': False, 'divey': False, 'intimate': False, 'trendy': False, 'upscale': False, 'classy': False, 'casual': False}","RestaurantsReservations":"False","HasTV":"True","Caters":"True","RestaurantsDelivery":"False"},"categories":"Restaurants, Sandwiches, Specialty Food, Food, Fruits & Veggies, Fast Food","hours":{"Monday":"7:0-22:0","Tuesday":"7:0-22:0","Wednesday":"7:0-22:0","Thursday":"7:0-22:0","Friday":"7:0-22:0","Saturday":"8:0-21:0","Sunday":"9:0-21:0"}}
{"business_id":"TghikeYc56lcmet_KwkYCA","name":"Arby's","address":"7670 E 96th St","city":"Fishers","state":"IN","postal_code":"46038","latitude":39.9274976,"longitude":-86.0355554,"stars":2.0,"review_count":11,"is_open":1,"attributes":{"NoiseLevel":"'quiet'","DriveThru":"True","RestaurantsPriceRange2":"1","GoodForKids":"True","RestaurantsDelivery":"True","RestaurantsReservations":"False","GoodForMeal":"{'dessert': False, 'latenight': False, 'lunch': False, 'dinner': False, 'brunch': False, 'breakfast': False}","RestaurantsGoodForGroups":"True","BusinessParking":"{'garage': False, 'street': False, 'validated': False, 'lot': True, 'valet': False}","RestaurantsTakeOut":"True"},"categories":"Burgers, Fast Food, Sandwiches, Restaurants","hours":null}
{"business_id":"GWajXz5cKulo-5A1wCKv8Q","name":"McDonald's","address":"7003 Seminole Blvd","city":"Seminole","state":"FL","postal_code":"33772","latitude":27.8363034516,"longitude":-82.7865341306,"stars":1.5,"review_count":28,"is_open":1,"attributes":{"WiFi":"u'free'","RestaurantsReservations":"False","GoodForKids":"True","Caters":"False","RestaurantsPriceRange2":"1","OutdoorSeating":"False","RestaurantsAttire":"u'casual'","HasTV":"True","Alcohol":"u'none'","RestaurantsTakeOut":"True","RestaurantsTableService":"False","DriveThru":"True","RestaurantsGoodForGroups":"False","BusinessAcceptsCreditCards":"True","BikeParking":"True","RestaurantsDelivery":"True","NoiseLevel":"u'average'","BusinessParking":"{'garage': False, 'street': False, 'validated': False, 'lot': False, 'valet': False}","Ambience":"{'romantic': False, 'intimate': False, 'touristy': False, 'hipster': False, 'divey': False, 'classy': False, 'trendy': False, 'upscale': False, 'casual': False}","GoodForMeal":"{'dessert': False, 'latenight': False, 'lunch': False, 'dinner': False, 'brunch': False, 'breakfast': False}"},"categories":"Fast Food, Restaurants, Coffee & Tea, Food, Burgers","hours":{"Monday":"0:0-0:0","Tuesday":"0:0-0:0","Wednesday":"0:0-0:0","Thursday":"0:0-0:0","Friday":"0:0-0:0","Saturday":"0:0-0:0","Sunday":"0:0-0:0"}}
{"business_id":"mLAYYF7hClpRCy9LAzelGA","name":"Gamestop","address":"5816 Crawfordsville Rd","city":"Indianapolis","state":"IN","postal_code":"46224","latitude":39.8006557152,"longitude":-86.2621440706,"stars":5.0,"review_count":5,"is_open":1,"attributes":{"BikeParking":"True","RestaurantsPriceRange2":"2","BusinessParking":"{'garage': False, 'street': False, 'validated': False, 'lot': False, 'valet': False}","BusinessAcceptsCreditCards":"True"},"categories":"Books, Mags, Music & Video, Video Game Stores, Videos & Video Game Rental, Electronics, Shopping, Hobby Shops","hours":{"Monday":"10:0-21:0","Tuesday":"10:0-21:0","Wednesday":"10:0-21:0","Friday":"5:0-21:0","Saturday":"10:0-21:0","Sunday":"11:0-18:0"}}
{"business_id":"pk2yX_mrrA03OPgKuLt9dA","name":"King of Prussia Laundromat","address":"540 Shoemaker Rd","city":"King of Prussia","state":"PA","postal_code":"19406","latitude":40.0793797,"longitude":-75.3582293,"stars":3.0,"review_count":29,"is_open":1,"attributes":{"BikeParking":"True","WiFi":"u'free'","RestaurantsPriceRange2":"1","BusinessAcceptsCreditCards":"True","BusinessParking":"{'garage': False, 'street': False, 'validated': False, 'lot': True, 'valet': False}"},"categories":"Dry Cleaning & Laundry, Laundromat, Local Services, Laundry Services","hours":{"Monday":"7:0-23:0","Tuesday":"7:0-23:0","Wednesday":"7:0-23:0","Thursday":"7:0-23:0","Friday":"7:0-23:0","Saturday":"6:0-23:0","Sunday":"6:0-23:0"}}
{"business_id":"LqzlL37ZOGVS8oSgKP3GGQ","name":"The Recovery Room Bar & Grill","address":"1715 Jefferson Hwy","city":"New Orleans","state":"LA","postal_code":"70121","latitude":29.9634049,"longitude":-90.1476472,"stars":3.0,"review_count":8,"is_open":0,"attributes":{"RestaurantsPriceRange2":"1","GoodForKids":"False","Caters":"False","Ambience":"{'romantic': False, 'intimate': False, 'touristy': False, 'hipster': False, 'divey': False, 'classy': False, 'trendy': False, 'upscale': False, 'casual': False}","HasTV":"True","BusinessParking":"{'garage': False, 'street': False, 'validated': False, 'lot': False, 'valet': False}","RestaurantsReservations":"False","RestaurantsGoodForGroups":"True","Alcohol":"u'full_bar'","RestaurantsTakeOut":"True","NoiseLevel":"u'quiet'","RestaurantsDelivery":"False","OutdoorSeating":"False","BusinessAcceptsCreditCards":"True","WiFi":"u'no'","RestaurantsAttire":"u'casual'","BikeParking":"False"},"categories":"Bars, Dive Bars, Burgers, Nightlife, Restaurants","hours":null}
{"business_id":"gvp_zY2WqtIqkQzGP2ZXqQ","name":"Lenny's Plumbing","address":"4500 Shores Dr, Ste 2","city":"Metairie","state":"LA","postal_code":"70006","latitude":30.017858,"longitude":-90.1894902,"stars":5.0,"review_count":10,"is_open":1,"attributes":null,"categories":"Home Services, Plumbing","hours":null}
{"business_id":"OgyYEMJAiGadEtRM5uKLiw","name":"Dobbs Tire & Auto Centers","address":"1180 Collinsville Crossing","city":"Collinsville","state":"IL","postal_code":"62234","latitude":38.678154,"longitude":-90.013572,"stars":4.0,"review_count":14,"is_open":1,"attributes":null,"categories":"Tires, Automotive, Auto Repair, Oil Change Stations","hours":{"Monday":"0:0-0:0","Tuesday":"7:0-18:0","Wednesday":"7:0-18:0","Thursday":"7:0-18:0","Friday":"7:0-18:0","Saturday":"7:0-17:0"}}
{"business_id":"hHItLy-uqkxx1nqjB8LvgQ","name":"Lithia Ford Lincoln of Boise","address":"8853 West Fairview Ave","city":"Boise","state":"ID","postal_code":"83704","latitude":43.6182171,"longitude":-116.2924334,"stars":3.0,"review_count":94,"is_open":1,"attributes":{"BusinessAcceptsCreditCards":"True"},"categories":"Automotive, Auto Repair, Car Dealers, Auto Parts & Supplies","hours":{"Monday":"0:0-0:0","Tuesday":"9:0-20:0","Wednesday":"9:0-20:0","Thursday":"9:0-20:0","Friday":"9:0-20:0","Saturday":"9:0-20:0","Sunday":"11:0-18:0"}}
{"business_id":"vpBj-Dq51WFqsbnIiUWEww","name":"Executive Auto Body","address":"560 Cottman Ave","city":"Cheltenham","state":"PA","postal_code":"19012","latitude":40.0679916,"longitude":-75.0956759,"stars":4.5,"review_count":18,"is_open":1,"attributes":{"WiFi":"u'free'","BusinessAcceptsCreditCards":"True"},"categories":"Body Shops, Automotive","hours":{"Monday":"7:0-17:0","Tuesday":"7:0-17:0","Wednesday":"7:0-17:0","Thursday":"7:0-17:0","Friday":"7:0-17:0","Saturday":"8:0-11:0"}}
{"business_id":"7hL5wCzn7NNuzswx-7VIIQ","name":"Ross Dress for Less","address":"7055 Marketplace Dr","city":"Goleta","state":"CA","postal_code":"93117","latitude":34.4274852,"longitude":-119.8730819,"stars":3.5,"review_count":33,"is_open":1,"attributes":{"BikeParking":"False","BusinessParking":"{'garage': False, 'street': False, 'validated': False, 'lot': True, 'valet': False}","BusinessAcceptsCreditCards":"True","RestaurantsPriceRange2":"1"},"categories":"Women's Clothing, Fashion, Department Stores, Home Decor, Home & Garden, Shopping, Men's Clothing, Discount Store","hours":{"Monday":"0:0-0:0","Tuesday":"8:0-22:0","Wednesday":"8:0-22:0","Thursday":"8:0-22:0","Friday":"8:0-22:0","Saturday":"8:0-22:0","Sunday":"8:0-22:0"}}
{"business_id":"2AsAvHMW2qPxg--iFy9K0w","name":"Mr. Dry Out","address":"14152 Faldo Ct","city":"Hudson","state":"FL","postal_code":"34667","latitude":28.36361,"longitude":-82.658768,"stars":3.0,"review_count":6,"is_open":1,"attributes":{"BusinessAcceptsCreditCards":"True","BusinessAcceptsBitcoin":"False","ByAppointmentOnly":"False"},"categories":"Contractors, Home Cleaning, Local Services, Damage Restoration, Home Services","hours":{"Monday":"0:0-0:0","Tuesday":"0:0-0:0","Wednesday":"0:0-0:0","Thursday":"0:0-0:0","Friday":"0:0-0:0","Saturday":"0:0-0:0","Sunday":"0:0-0:0"}}
{"business_id":"Md3As0aLdRbbNKB1hPdonw","name":"Bywood Seafood Market","address":"827 Conestoga Rd","city":"Bryn Mawr","state":"PA","postal_code":"19010","latitude":40.0260684,"longitude":-75.3386899,"stars":4.0,"review_count":9,"is_open":1,"attributes":{"NoiseLevel":"u'quiet'","BusinessParking":"{'garage': False, 'street': False, 'validated': False, 'lot': False, 'valet': False}","RestaurantsAttire":"u'casual'","RestaurantsPriceRange2":"2","RestaurantsTakeOut":"True"},"categories":"Seafood, Food, Seafood Markets, Specialty Food, Restaurants","hours":{"Monday":"8:30-18:0","Tuesday":"8:30-18:0","Wednesday":"8:30-18:0","Thursday":"8:30-18:0","Friday":"8:30-18:0","Saturday":"9:0-17:0"}}
{"business_id":"Iph3_HQqCYwOB07d0Kc_TA","name":"Battleground Hospital For Animals","address":"225 S Royal Oaks Blvd","city":"Franklin","state":"TN","postal_code":"37064","latitude":35.9107935,"longitude":-86.8317901,"stars":4.0,"review_count":19,"is_open":1,"attributes":null,"categories":"Veterinarians, Pets, Pet Groomers, Pet Services, Pet Boarding, Pet Sitting","hours":{"Monday":"7:0-18:0","Tuesday":"7:0-18:0","Wednesday":"7:0-18:0","Thursday":"7:0-18:0","Friday":"7:0-18:0","Saturday":"7:30-13:0"}}
{"business_id":"_vXUaBjScB75r0yYOv-FIw","name":"Big Boys Moving And Storage","address":"13605 W Hillsborough Ave","city":"Tampa","state":"FL","postal_code":"33635","latitude":28.0321462,"longitude":-82.6419718,"stars":1.5,"review_count":66,"is_open":1,"attributes":{"BusinessAcceptsCreditCards":"False","BusinessAcceptsBitcoin":"False","ByAppointmentOnly":"False"},"categories":"Movers, American (New), Landscape Architects, Food, Home Services, Self Storage, Local Services, Restaurants","hours":null}
{"business_id":"I3VHbG-Jn3QRiNh9nfSEFQ","name":"Egg Roll King Two","address":"2253 Oddie Blvd","city":"Sparks","state":"NV","postal_code":"89431","latitude":39.5442502,"longitude":-119.7746741,"stars":3.0,"review_count":37,"is_open":1,"attributes":{"RestaurantsAttire":"u'casual'","Alcohol":"u'none'","OutdoorSeating":"False","RestaurantsGoodForGroups":"True","WiFi":"u'no'","RestaurantsTakeOut":"True","RestaurantsPriceRange2":"1","BusinessAcceptsCreditCards":"True","RestaurantsDelivery":"False","BikeParking":"True","NoiseLevel":"u'average'","GoodForKids":"True","Caters":"True","RestaurantsReservations":"False","BusinessParking":"{'garage': False, 'street': False, 'validated': False, 'lot': False, 'valet': False}","GoodForMeal":"{'dessert': False, 'latenight': None, 'lunch': True, 'dinner': None, 'brunch': None, 'breakfast': None}","HasTV":"True","Ambience":"{'touristy': False, 'hipster': False, 'romantic': False, 'divey': None, 'intimate': False, 'trendy': False, 'upscale': False, 'classy': False, 'casual': None}"},"categories":"Restaurants, Chinese","hours":null}
{"business_id":"jHhmFSC984cxaGwNKDfcxg","name":"Light World","address":"4625 E Street Rd","city":"Feasterville Trevose","state":"PA","postal_code":"19053","latitude":40.1361654,"longitude":-74.9809221,"stars":3.5,"review_count":6,"is_open":1,"attributes":{"BusinessAcceptsCreditCards":"True","ByAppointmentOnly":"False"},"categories":"Home & Garden, Shopping, Home Services, Lighting Fixtures & Equipment","hours":{"Monday":"10:0-17:0","Tuesday":"10:0-17:0","Wednesday":"10:0-17:0","Thursday":"10:0-20:0","Friday":"10:0-18:0","Saturday":"10:0-17:0"}}
{"business_id":"MW3rpMLnVr7I6izfBw-1Hw","name":"Lewis and Clark Confluence Tower","address":"435 Confluence Tower Dr","city":"Hartford","state":"IL","postal_code":"62048","latitude":38.8109208,"longitude":-90.1007639,"stars":3.0,"review_count":11,"is_open":1,"attributes":{"GoodForKids":"True"},"categories":"Landmarks & Historical Buildings, Local Flavor, Public Services & Government","hours":null}
{"business_id":"0lcyi1tnVldDB8rxKraZSQ","name":"Bloom","address":"910 N 2nd St","city":"Philadelphia","state":"PA","postal_code":"19123","latitude":39.9644567592,"longitude":-75.1407444477,"stars":5.0,"review_count":15,"is_open":0,"attributes":{"BusinessParking":"{'garage': False, 'street': True, 'validated': False, 'lot': False, 'valet': False}","ByAppointmentOnly":"False","RestaurantsPriceRange2":"2","BusinessAcceptsCreditCards":"True"},"categories":"Shopping, Fashion, Women's Clothing, Jewelry, Accessories","hours":{"Wednesday":"12:0-19:0","Thursday":"12:0-19:0","Friday":"12:0-19:0","Saturday":"12:0-19:0","Sunday":"12:0-18:0"}}
{"business_id":"A3rjcug-67WXjW0PstNVDA","name":"Kallejon 813","address":"4105 Gunn Hwy","city":"Tampa","state":"FL","postal_code":"33618","latitude":28.0413030806,"longitude":-82.5090043471,"stars":3.5,"review_count":6,"is_open":1,"attributes":{"RestaurantsDelivery":"True","RestaurantsTakeOut":"True"},"categories":"Restaurants, Peruvian, Food, Food Trucks","hours":null}
{"business_id":"TN9E00KJt4Snog2pZtbY4A","name":"The Loop Taste of Chicago","address":"10180 N Oracle Rd","city":"Oro Valley","state":"AZ","postal_code":"85704","latitude":32.391098,"longitude":-110.962651,"stars":3.0,"review_count":11,"is_open":0,"attributes":{"RestaurantsGoodForGroups":"True","RestaurantsTakeOut":"True","BusinessAcceptsCreditCards":"True","RestaurantsReservations":"True","OutdoorSeating":"True","BusinessParking":"{'garage': False, 'street': False, 'validated': False, 'lot': False, 'valet': False}","RestaurantsPriceRange2":"2","RestaurantsAttire":"u'casual'","GoodForKids":"True","Alcohol":"u'full_bar'","Ambience":"{'romantic': False, 'intimate': False, 'touristy': False, 'hipster': False, 'divey': False, 'classy': False, 'trendy': False, 'upscale': False, 'casual': False}","RestaurantsDelivery":"False","Caters":"False","NoiseLevel":"u'average'","HasTV":"True"},"categories":"Pizza, Restaurants","hours":{"Monday":"11:0-23:0","Tuesday":"11:0-23:0","Wednesday":"11:0-23:0","Thursday":"11:0-23:0","Friday":"11:0-0:0","Saturday":"11:0-0:0","Sunday":"11:0-22:0"}}
{"business_id":"edOq9mAFpg48tI9pwwWNUg","name":"Hanoi's Pho","address":"1501 W Chester Pike","city":"Havertown","state":"PA","postal_code":"19083","latitude":39.9741573,"longitude":-75.3238857,"stars":3.5,"review_count":70,"is_open":1,"attributes":{"WheelchairAccessible":"True","DogsAllowed":"False","RestaurantsTakeOut":"True","HappyHour":"False","RestaurantsDelivery":"True","BusinessAcceptsCreditCards":"True","Corkage":"False","HasTV":"True","BusinessAcceptsBitcoin":"False","BusinessParking":"{'garage': False, 'street': False, 'validated': False, 'lot': True, 'valet': False}","RestaurantsTableService":"True","Alcohol":"u'none'","RestaurantsGoodForGroups":"True","WiFi":"u'free'","NoiseLevel":"u'average'","RestaurantsReservations":"True","BYOB":"True","OutdoorSeating":"False","GoodForMeal":"{'dessert': False, 'latenight': False, 'lunch': False, 'dinner': False, 'brunch': False, 'breakfast': False}","BikeParking":"True","Ambience":"{u'divey': False, u'hipster': None, u'casual': True, u'touristy': None, u'trendy': None, u'intimate': None, u'romantic': False, u'classy': None, u'upscale': None}","Caters":"True"},"categories":"Vietnamese, Soup, Restaurants, Noodles","hours":{"Monday":"0:0-0:0","Tuesday":"11:0-21:0","Wednesday":"11:0-21:0","Thursday":"11:0-16:0","Friday":"11:0-21:30","Saturday":"11:0-21:30","Sunday":"11:0-21:0"}}
{"business_id":"5ikqJdITpK-YKYJM1VO32w","name":"Eagle Luxe Reel Theatre","address":"170 E Eagles Gate Dr","city":"Eagle","state":"ID","postal_code":"83616","latitude":43.6678814,"longitude":-116.3524099,"stars":3.5,"review_count":24,"is_open":1,"attributes":{"WiFi":"u'no'","Alcohol":"u'none'","DogsAllowed":"False"},"categories":"Cinema, Arts & Entertainment","hours":{"Monday":"11:0-23:30","Tuesday":"11:0-23:30","Wednesday":"11:0-23:30","Thursday":"11:0-23:30","Friday":"11:0-23:30","Saturday":"11:0-23:30","Sunday":"11:0-23:30"}}
{"business_id":"TkZdjnkAKWo9iljqT-hRxQ","name":"Gram's Place","address":"3109 N Ola Ave","city":"Tampa","state":"FL","postal_code":"33603","latitude":27.9731895,"longitude":-82.4633655,"stars":4.0,"review_count":40,"is_open":1,"attributes":{"RestaurantsPriceRange2":"2","WiFi":"u'free'"},"categories":"Hotels & Travel, Hostels, Bed & Breakfast, Hotels, Event Planning & Services","hours":{"Monday":"10:0-22:0","Tuesday":"10:0-22:0","Wednesday":"10:0-22:0","Thursday":"10:0-22:0","Friday":"10:0-22:0","Saturday":"10:0-22:0","Sunday":"10:0-22:0"}}
{"business_id":"kCVs2MaX3_y7nx6Z23SUsw","name":"Big Lots","address":"8401 Michigan Rd","city":"Indianapolis","state":"IN","postal_code":"46268","latitude":39.9074858324,"longitude":-86.2183948276,"stars":3.5,"review_count":9,"is_open":1,"attributes":{"RestaurantsPriceRange2":"1","BusinessParking":"{'garage': False, 'street': False, 'validated': False, 'lot': True, 'valet': False}","BusinessAcceptsCreditCards":"True","BikeParking":"True"},"categories":"Fashion, Department Stores, Furniture Stores, Shopping, Home Decor, Home & Garden, Discount Store","hours":{"Monday":"0:0-0:0","Tuesday":"7:0-22:0","Wednesday":"7:0-22:0","Thursday":"7:0-22:0","Friday":"7:0-22:0","Saturday":"7:0-22:0","Sunday":"7:0-22:0"}}
{"business_id":"xhXtqEJaB1f3SxFb4Vl9xQ","name":"Service First Heating & Air Conditioning","address":"201 S Lincoln Ave","city":"Newtown","state":"PA","postal_code":"18940","latitude":40.2262012,"longitude":-74.9315865,"stars":4.5,"review_count":7,"is_open":1,"attributes":{"BusinessAcceptsCreditCards":"True","ByAppointmentOnly":"True"},"categories":"Home Services, Heating & Air Conditioning\/HVAC, Local Services, Appliances & Repair, Water Heater Installation\/Repair","hours":{"Monday":"0:0-0:0","Tuesday":"0:0-0:0","Wednesday":"0:0-0:0","Thursday":"0:0-0:0","Friday":"0:0-0:0","Saturday":"0:0-0:0","Sunday":"0:0-0:0"}}
{"business_id":"4iNiaPUA_otZJeSimSJjuA","name":"Simply Done Cafe","address":"10728 124 Street","city":"Edmonton","state":"AB","postal_code":"T5M 0H1","latitude":53.5518157,"longitude":-113.5363493,"stars":1.5,"review_count":5,"is_open":1,"attributes":{"Caters":"False","Alcohol":"'none'","RestaurantsGoodForGroups":"True","RestaurantsPriceRange2":"1","RestaurantsReservations":"False","WiFi":"'no'","GoodForKids":"True","RestaurantsAttire":"'casual'","BusinessParking":"{'garage': False, 'street': False, 'validated': False, 'lot': False, 'valet': False}","NoiseLevel":"'quiet'","RestaurantsDelivery":"False","OutdoorSeating":"False","Ambience":"{'romantic': False, 'intimate': False, 'classy': False, 'hipster': False, 'divey': False, 'touristy': False, 'trendy': False, 'upscale': False, 'casual': False}","RestaurantsTakeOut":"False"},"categories":"Breakfast & Brunch, Restaurants","hours":null}
{"business_id":"dJVgnvkMbNQTdqH8svJskA","name":"The Iron Shop","address":"400 Reed Rd","city":"Broomall","state":"PA","postal_code":"19008","latitude":39.956698,"longitude":-75.341032,"stars":3.0,"review_count":6,"is_open":1,"attributes":{"BusinessParking":"{'garage': False, 'street': False, 'validated': False, 'lot': True, 'valet': False}","BusinessAcceptsCreditCards":"True","WheelchairAccessible":"True","BusinessAcceptsBitcoin":"False","ByAppointmentOnly":"False","BikeParking":"True","DogsAllowed":"True"},"categories":"Home Services, Shopping, Building Supplies, Home & Garden, Contractors, Furniture Stores","hours":{"Monday":"8:0-17:0","Tuesday":"8:0-17:0","Wednesday":"8:0-17:0","Thursday":"8:0-17:0","Friday":"8:0-17:0","Saturday":"8:0-12:0"}}
{"business_id":"QbAZz0bNDECP9fKh2HXwEA","name":"The Fresh Market","address":"2900 4th St N","city":"St. Petersburg","state":"FL","postal_code":"33704","latitude":27.7988439,"longitude":-82.6389752,"stars":3.5,"review_count":113,"is_open":1,"attributes":{"BusinessParking":"{'garage': False, 'street': False, 'validated': False, 'lot': True, 'valet': False}","RestaurantsPriceRange2":"2","BikeParking":"True","BusinessAcceptsCreditCards":"True","RestaurantsTakeOut":"True","DogsAllowed":"False","Caters":"True","NoiseLevel":"u'quiet'","GoodForKids":"True","RestaurantsDelivery":"True"},"categories":"Food, Grocery, Shopping","hours":{"Monday":"8:0-21:0","Tuesday":"7:0-22:0","Wednesday":"7:0-22:0","Thursday":"7:0-16:0","Friday":"8:0-21:0","Saturday":"8:0-21:0","Sunday":"8:0-16:0"}}
{"business_id":"f5VXOfy6vIPlvWnwEwufGA","name":"Brow Art","address":"593 Brandon Town Ctr","city":"Brandon","state":"FL","postal_code":"33511","latitude":27.934143,"longitude":-82.3260982,"stars":2.0,"review_count":27,"is_open":1,"attributes":{"RestaurantsPriceRange2":"2","BusinessParking":"{'valet': False, 'garage': False, 'street': False, 'lot': False, 'validated': False}","BusinessAcceptsCreditCards":"True","ByAppointmentOnly":"False","BikeParking":"True"},"categories":"Beauty & Spas, Hair Removal, Eyebrow Services","hours":null}
{"business_id":"55Q1klIhnn7tcJ6inLtwiw","name":"The Jungle","address":"246 W 1st St","city":"Reno","state":"NV","postal_code":"89501","latitude":39.5249352,"longitude":-119.8159887,"stars":3.5,"review_count":267,"is_open":0,"attributes":{"OutdoorSeating":"True","WiFi":"'free'","RestaurantsPriceRange2":"1","BusinessParking":"{'garage': False, 'street': True, 'validated': False, 'lot': False, 'valet': False}","Smoking":"u'outdoor'","HappyHour":"True","RestaurantsTakeOut":"True","BestNights":"{'monday': True, 'tuesday': False, 'friday': True, 'wednesday': False, 'thursday': False, 'sunday': False, 'saturday': True}","HasTV":"True","CoatCheck":"False","Ambience":"{'romantic': False, 'intimate': False, 'classy': False, 'hipster': True, 'divey': False, 'touristy': False, 'trendy': False, 'upscale': False, 'casual': True}","BusinessAcceptsBitcoin":"False","RestaurantsAttire":"'casual'","Music":"{'dj': False, 'background_music': False, 'no_music': False, 'jukebox': False, 'live': False, 'video': False, 'karaoke': False}","RestaurantsTableService":"False","Alcohol":"u'full_bar'","GoodForMeal":"{'dessert': False, 'latenight': False, 'lunch': False, 'dinner': False, 'brunch': False, 'breakfast': True}","Caters":"True","GoodForKids":"True","BikeParking":"True","RestaurantsReservations":"False","BusinessAcceptsCreditCards":"True","DogsAllowed":"True","NoiseLevel":"u'average'","WheelchairAccessible":"True","RestaurantsGoodForGroups":"True","RestaurantsDelivery":"False"},"categories":"Restaurants, Breakfast & Brunch, Bars, Wine Bars, Coffee & Tea, Food, Cafes, Sandwiches, Nightlife","hours":{"Monday":"7:0-23:0","Tuesday":"7:0-23:0","Wednesday":"7:0-23:0","Thursday":"7:0-23:0","Friday":"7:0-0:0","Saturday":"7:0-0:0","Sunday":"7:0-23:0"}}
{"business_id":"p7dn4kf-khGTPmWA8vVaBw","name":"Jordans Fish and Chicken","address":"6416 W Washington St","city":"Indianapolis","state":"IN","postal_code":"46241","latitude":39.746507,"longitude":-86.272258,"stars":3.5,"review_count":10,"is_open":1,"attributes":{"BikeParking":"True","WheelchairAccessible":"True","WiFi":"u'no'","Caters":"True","RestaurantsTableService":"True","Alcohol":"u'none'","RestaurantsGoodForGroups":"True","HasTV":"True","Corkage":"False","RestaurantsTakeOut":"True","DogsAllowed":"False","OutdoorSeating":"False","BYOB":"False","BusinessAcceptsCreditCards":"True","RestaurantsDelivery":"True"},"categories":"Restaurants, Chicken Wings, Fish & Chips, American (Traditional)","hours":{"Monday":"10:0-23:0","Tuesday":"10:0-23:0","Wednesday":"10:0-23:0","Thursday":"10:0-23:0","Friday":"10:0-23:0","Saturday":"10:0-23:0","Sunday":"11:0-22:0"}}
{"business_id":"kPl_YGxEiYLQZmYI8i1Ksw","name":"PennDOT","address":"2904 S 70th St","city":"Philadelphia","state":"PA","postal_code":"19142","latitude":39.9124668455,"longitude":-75.2324452454,"stars":5.0,"review_count":8,"is_open":1,"attributes":null,"categories":"Public Services & Government, Departments of Motor Vehicles","hours":null}
{"business_id":"kTYSCRwCH8Cbq-GAI-04EQ","name":"Pit Stop HQ","address":"838-842 Christian St","city":"Philadelphia","state":"PA","postal_code":"19147","latitude":39.9388854,"longitude":-75.1576044,"stars":4.5,"review_count":65,"is_open":1,"attributes":null,"categories":"Pet Groomers, Pet Stores, Pet Training, Dog Walkers, Pet Services, Pets, Pet Sitting","hours":{"Monday":"6:30-19:0","Tuesday":"6:30-19:0","Wednesday":"6:30-19:0","Thursday":"6:30-19:0","Friday":"6:30-19:0","Saturday":"8:0-17:0","Sunday":"8:0-17:0"}}
{"business_id":"ebJav941naDgngDP2EIRHw","name":"Panda Express","address":"3849 State St. Space I-58","city":"Santa Barbara","state":"CA","postal_code":"93101","latitude":34.439041,"longitude":-119.749199,"stars":2.5,"review_count":51,"is_open":1,"attributes":{"BusinessAcceptsCreditCards":"True","RestaurantsReservations":"False","RestaurantsGoodForGroups":"True","NoiseLevel":"u'average'","RestaurantsAttire":"'casual'","OutdoorSeating":"True","Alcohol":"u'none'","GoodForKids":"True","RestaurantsPriceRange2":"1","Ambience":"{'touristy': False, 'hipster': False, 'romantic': False, 'divey': False, 'intimate': False, 'trendy': False, 'upscale': False, 'classy': False, 'casual': False}","RestaurantsTakeOut":"True","BikeParking":"True","GoodForMeal":"{'dessert': False, 'latenight': False, 'lunch': False, 'dinner': False, 'brunch': False, 'breakfast': False}","HasTV":"True","RestaurantsDelivery":"True","DriveThru":"False","Caters":"True","BusinessParking":"{'garage': False, 'street': False, 'validated': False, 'lot': True, 'valet': False}"},"categories":"Fast Food, Chinese, Restaurants","hours":{"Monday":"10:30-20:0","Tuesday":"10:30-20:0","Wednesday":"10:30-20:0","Thursday":"10:30-20:0","Friday":"10:30-20:0","Saturday":"10:30-20:0","Sunday":"10:30-20:0"}}
{"business_id":"Ym7H4qc_VX6R9A9FziTBpw","name":"Uptown Snoballs and Ice Cream","address":"1003 4th St N","city":"St. Petersburg","state":"FL","postal_code":"33701","latitude":27.7823569,"longitude":-82.6382393,"stars":5.0,"review_count":43,"is_open":1,"attributes":{"BikeParking":"True","RestaurantsDelivery":"False","BusinessAcceptsCreditCards":"True","DogsAllowed":"True","RestaurantsTakeOut":"False","WheelchairAccessible":"True","RestaurantsPriceRange2":"2","WiFi":"u'free'","Caters":"False","BusinessParking":"{'garage': False, 'street': False, 'validated': False, 'lot': True, 'valet': False}","BusinessAcceptsBitcoin":"False"},"categories":"Ice Cream & Frozen Yogurt, Shaved Ice, Food, Desserts","hours":{"Monday":"0:0-0:0","Thursday":"13:30-21:0","Friday":"13:30-22:0","Saturday":"13:30-22:0","Sunday":"12:30-21:0"}}
{"business_id":"KupJu_xNekfG0DkEH5ydPQ","name":"Dalco Home Remodeling","address":"13795 St Charles Rock Rd","city":"Bridgeton","state":"MO","postal_code":"63044","latitude":38.778404,"longitude":-90.45449,"stars":3.0,"review_count":6,"is_open":1,"attributes":{"BusinessAcceptsCreditCards":"True","ByAppointmentOnly":"False"},"categories":"Home & Garden, Garage Door Services, Shopping, Roofing, Contractors, Windows Installation, Hardware Stores, Home Services","hours":{"Monday":"0:0-0:0","Tuesday":"7:30-16:30","Wednesday":"7:30-16:30","Thursday":"7:30-16:30","Friday":"7:30-16:30"}}
{"business_id":"k_Cqx3O5VR-WhK9jMLl6eQ","name":"New Orleans Eye Specialists","address":"3434 Prytania St, Ste 250","city":"New Orleans","state":"LA","postal_code":"70115","latitude":29.9260462,"longitude":-90.0913968,"stars":2.0,"review_count":9,"is_open":1,"attributes":{"ByAppointmentOnly":"True"},"categories":"Optometrists, Ophthalmologists, Doctors, Health & Medical","hours":null}
{"business_id":"82U3VwhNnbbQCiszlrVLKA","name":"Take 5 Oil Change","address":"3803 Gen Degaulle Dr","city":"New Orleans","state":"LA","postal_code":"70114","latitude":29.9220754,"longitude":-90.01773,"stars":3.5,"review_count":19,"is_open":1,"attributes":{"BusinessAcceptsCreditCards":"True"},"categories":"Automotive, Oil Change Stations","hours":{"Monday":"0:0-0:0","Tuesday":"7:0-19:0","Wednesday":"7:0-19:0","Thursday":"7:0-19:0","Friday":"7:0-19:0","Saturday":"7:0-18:0","Sunday":"10:0-16:0"}}
{"business_id":"vD2jzpPv4iyOLKzITscGvA","name":"Farmhaus Restaurant","address":"3257 Ivanhoe Ave","city":"Saint Louis","state":"MO","postal_code":"63139","latitude":38.604131,"longitude":-90.3041457,"stars":4.0,"review_count":324,"is_open":1,"attributes":{"Alcohol":"u'full_bar'","OutdoorSeating":"True","RestaurantsPriceRange2":"3","RestaurantsReservations":"True","Caters":"False","HasTV":"False","BusinessParking":"{'garage': False, 'street': True, 'validated': False, 'lot': False, 'valet': False}","GoodForKids":"False","RestaurantsGoodForGroups":"False","BusinessAcceptsCreditCards":"True","BikeParking":"True","NoiseLevel":"u'average'","WiFi":"u'no'","RestaurantsDelivery":"False","BestNights":"{'monday': False, 'tuesday': False, 'friday': False, 'wednesday': False, 'thursday': False, 'sunday': False, 'saturday': False}","CoatCheck":"False","HappyHour":"False","Music":"{'dj': False, 'background_music': False, 'no_music': False, 'jukebox': None, 'live': None, 'video': False, 'karaoke': None}","RestaurantsAttire":"u'casual'","GoodForDancing":"False","WheelchairAccessible":"True","GoodForMeal":"{'dessert': False, 'latenight': False, 'lunch': False, 'dinner': True, 'brunch': False, 'breakfast': False}","RestaurantsTakeOut":"True","Ambience":"{'touristy': False, 'hipster': False, 'romantic': False, 'divey': False, 'intimate': False, 'trendy': False, 'upscale': False, 'classy': True, 'casual': False}","RestaurantsTableService":"True"},"categories":"Wine Bars, American (New), Cocktail Bars, Restaurants, American (Traditional), Nightlife, Bars","hours":{"Wednesday":"17:30-21:0","Thursday":"17:30-21:0","Friday":"17:30-21:0","Saturday":"17:30-21:0"}}
{"business_id":"6mxuP4X8OQ1_mEnxkIVXiA","name":"Allan Link,DMD - The DentaLink","address":"14335 Manchester Rd","city":"Ballwin","state":"MO","postal_code":"63011","latitude":38.5936478,"longitude":-90.5130645,"stars":4.0,"review_count":10,"is_open":1,"attributes":{"BusinessAcceptsCreditCards":"True","ByAppointmentOnly":"True","AcceptsInsurance":"True"},"categories":"Cosmetic Dentists, Periodontists, Dentists, Health & Medical, General Dentistry","hours":{"Monday":"0:0-0:0","Tuesday":"14:0-16:0","Wednesday":"12:0-15:0","Thursday":"14:0-16:0","Friday":"8:0-13:0"}}
{"business_id":"iX4DozfBXU6Ku6qKlBvpZw","name":"Biggest Little Pools","address":"","city":"St. Petersburg","state":"FL","postal_code":"33716","latitude":27.8756643,"longitude":-82.6537455,"stars":5.0,"review_count":6,"is_open":1,"attributes":{"BusinessAcceptsBitcoin":"False","ByAppointmentOnly":"False","BusinessAcceptsCreditCards":"True"},"categories":"Home Services, Pool Cleaners","hours":{"Monday":"9:0-17:0","Tuesday":"9:0-17:0","Wednesday":"9:0-17:0","Thursday":"9:0-17:0","Friday":"9:0-17:0"}}
{"business_id":"3qjiqLEux4OwD7TrBkRcoA","name":"Dentistry for Children and Adolescents - St. Charles","address":"2050 Bluestone Dr","city":"St. Charles","state":"MO","postal_code":"63303","latitude":38.7588859,"longitude":-90.5307716,"stars":4.5,"review_count":11,"is_open":1,"attributes":{"ByAppointmentOnly":"True","BusinessAcceptsCreditCards":"True","AcceptsInsurance":"True"},"categories":"Health & Medical, Pediatric Dentists, Dentists","hours":{"Monday":"8:0-17:0","Tuesday":"8:0-17:0","Wednesday":"8:0-17:0","Thursday":"8:0-17:0","Friday":"8:0-17:0","Saturday":"8:0-12:0"}}
{"business_id":"kH2bJtlej-8oDv8KjsEzCg","name":"Holiday Inn Philadelphia Stadium","address":"900 Packer Ave","city":"Philadelphia","state":"PA","postal_code":"19148","latitude":39.9093697,"longitude":-75.1646366,"stars":2.5,"review_count":85,"is_open":0,"attributes":{"RestaurantsPriceRange2":"2","BusinessAcceptsCreditCards":"True","WiFi":"u'free'"},"categories":"Hotels & Travel, Venues & Event Spaces, Hotels, Event Planning & Services","hours":{"Monday":"0:0-0:0","Tuesday":"0:0-0:0","Wednesday":"0:0-0:0","Thursday":"0:0-0:0","Friday":"0:0-0:0","Saturday":"0:0-0:0","Sunday":"0:0-0:0"}}
{"business_id":"8_MO5RAde2jsBQMAJNtIcw","name":"Sleep Number","address":"690 W Dekalb Pike","city":"King Of Prussia","state":"PA","postal_code":"19406","latitude":40.0897998,"longitude":-75.3850541,"stars":2.0,"review_count":10,"is_open":1,"attributes":{"BusinessAcceptsCreditCards":"True","BusinessParking":"{'garage': False, 'street': False, 'validated': False, 'lot': False, 'valet': False}","BikeParking":"True","RestaurantsPriceRange2":"3"},"categories":"Home Decor, Furniture Stores, Mattresses, Shopping, Home & Garden","hours":{"Monday":"10:0-21:0","Tuesday":"10:0-21:0","Wednesday":"10:0-21:0","Thursday":"10:0-21:0","Friday":"10:0-21:0","Saturday":"10:0-21:0","Sunday":"11:0-18:0"}}
{"business_id":"dipYayS-riBnIqz0mlUFLw","name":"Pat Flynn's Public House","address":"5198 Allisonville Rd","city":"Indianapolis","state":"IN","postal_code":"46205","latitude":39.8472667,"longitude":-86.1123524,"stars":3.5,"review_count":18,"is_open":0,"attributes":{"NoiseLevel":"u'average'","RestaurantsDelivery":"False","GoodForKids":"True","RestaurantsTakeOut":"True","RestaurantsGoodForGroups":"True","Alcohol":"u'full_bar'","BusinessAcceptsCreditCards":"True","RestaurantsPriceRange2":"2","RestaurantsAttire":"u'casual'","RestaurantsReservations":"False","OutdoorSeating":"False","Caters":"False","HasTV":"True","Ambience":"{'romantic': False, 'intimate': False, 'classy': False, 'hipster': False, 'divey': False, 'touristy': False, 'trendy': False, 'upscale': False, 'casual': True}","BikeParking":"True","BusinessParking":"{'garage': False, 'street': False, 'validated': False, 'lot': True, 'valet': False}"},"categories":"Irish, Bars, Restaurants, Pubs, Nightlife","hours":{"Monday":"11:0-0:0","Tuesday":"11:0-0:0","Wednesday":"11:0-0:0","Thursday":"11:0-0:0","Friday":"11:0-1:0","Saturday":"11:0-1:0"}}
{"business_id":"o_6YLXkEWeLZputXJ--QYA","name":"Humpty's Dumplings","address":"705 East Passyunk Ave","city":"Philadelphia","state":"PA","postal_code":"19147","latitude":39.9404748,"longitude":-75.1507774,"stars":4.0,"review_count":69,"is_open":0,"attributes":{"RestaurantsTakeOut":"True","BusinessAcceptsBitcoin":"False","OutdoorSeating":"True","Caters":"True","WheelchairAccessible":"True","WiFi":"u'free'","HappyHour":"False","Alcohol":"u'none'","RestaurantsDelivery":"True","NoiseLevel":"'quiet'","RestaurantsTableService":"False","BikeParking":"True","GoodForKids":"True","RestaurantsReservations":"False","BusinessAcceptsCreditCards":"True","RestaurantsPriceRange2":"2","GoodForMeal":"{'dessert': False, 'latenight': False, 'lunch': True, 'dinner': True, 'brunch': False, 'breakfast': False}","Ambience":"{'touristy': False, 'hipster': False, 'romantic': False, 'divey': False, 'intimate': False, 'trendy': True, 'upscale': False, 'classy': False, 'casual': True}","HasTV":"False","RestaurantsGoodForGroups":"False","BusinessParking":"{'garage': False, 'street': True, 'validated': False, 'lot': True, 'valet': False}","RestaurantsAttire":"'casual'"},"categories":"American (New), Restaurants, American (Traditional), Asian Fusion, Noodles, Dim Sum, Fast Food, Chinese","hours":{"Wednesday":"12:0-21:0","Thursday":"12:0-21:0","Friday":"12:0-21:0","Saturday":"12:0-21:0","Sunday":"12:0-21:0"}}
{"business_id":"XxguP0h4uLdvymJd4NpKJw","name":"Samwich","address":"1040 N American St, Ste 1101","city":"Philadelphia","state":"PA","postal_code":"19123","latitude":39.9674016,"longitude":-75.1411529,"stars":3.5,"review_count":7,"is_open":0,"attributes":{"RestaurantsPriceRange2":"1","Ambience":"{'touristy': False, 'hipster': False, 'romantic': False, 'divey': False, 'intimate': False, 'trendy': False, 'upscale': False, 'classy': False, 'casual': False}","GoodForMeal":"{'dessert': False, 'latenight': False, 'lunch': False, 'dinner': False, 'brunch': False, 'breakfast': False}","BusinessAcceptsCreditCards":"True","NoiseLevel":"u'quiet'","BusinessParking":"{'garage': False, 'street': False, 'validated': False, 'lot': False, 'valet': False}","RestaurantsGoodForGroups":"True","RestaurantsDelivery":"True","OutdoorSeating":"True","GoodForKids":"True","RestaurantsAttire":"u'casual'","RestaurantsTakeOut":"True","Alcohol":"u'none'"},"categories":"Salad, Sandwiches, Restaurants, Burgers","hours":null}
{"business_id":"O-7NsPu5FCOzUqNovGzskg","name":"Artesano Gallery & Iron Works","address":"4457 Main St","city":"Philadelphia","state":"PA","postal_code":"19127","latitude":40.026896,"longitude":-75.226715,"stars":4.5,"review_count":22,"is_open":1,"attributes":{"BusinessAcceptsCreditCards":"True","WheelchairAccessible":"True","WiFi":"u'free'"},"categories":"Venues & Event Spaces, Event Planning & Services","hours":{"Monday":"9:0-17:0","Tuesday":"9:0-17:0","Wednesday":"9:0-17:0","Thursday":"9:0-17:0","Friday":"9:0-17:0"}}
{"business_id":"QJcjW79f5k_HLg5_KgjUtg","name":"Fishtown Diner","address":"2424 E York St","city":"Philadelphia","state":"PA","postal_code":"19125","latitude":39.9774533,"longitude":-75.1245282,"stars":3.0,"review_count":222,"is_open":1,"attributes":{"RestaurantsReservations":"False","OutdoorSeating":"False","RestaurantsPriceRange2":"2","GoodForKids":"True","HasTV":"True","BusinessParking":"{'garage': False, 'street': True, 'validated': False, 'lot': False, 'valet': False}","RestaurantsTakeOut":"True","BikeParking":"True","BusinessAcceptsCreditCards":"True","RestaurantsAttire":"u'casual'","RestaurantsGoodForGroups":"True","NoiseLevel":"u'average'","Alcohol":"u'none'","RestaurantsDelivery":"True","Caters":"True","DogsAllowed":"False","WiFi":"u'free'","Ambience":"{u'divey': False, u'hipster': None, u'casual': True, u'touristy': False, u'trendy': None, u'intimate': False, u'romantic': False, u'classy': False, u'upscale': False}","GoodForMeal":"{u'breakfast': True, u'brunch': True, u'lunch': None, u'dinner': None, u'latenight': True, u'dessert': None}"},"categories":"Restaurants, Diners, Breakfast & Brunch, American (New), American (Traditional), Burgers","hours":{"Monday":"7:0-0:0","Tuesday":"7:0-0:0","Wednesday":"7:0-0:0","Thursday":"7:0-0:0","Friday":"0:0-0:0","Saturday":"0:0-0:0","Sunday":"7:0-0:0"}}
{"business_id":"PdT1l1LtQzVYERaYdmYYQQ","name":"Taco Bell","address":"11425 Allisonville Road","city":"Fishers","state":"IN","postal_code":"46038","latitude":39.955529,"longitude":-86.040685,"stars":3.0,"review_count":25,"is_open":1,"attributes":{"RestaurantsGoodForGroups":"True","BikeParking":"False","RestaurantsReservations":"False","Ambience":"{'touristy': False, 'hipster': False, 'romantic': False, 'divey': False, 'intimate': False, 'trendy': False, 'upscale': False, 'classy': False, 'casual': False}","WiFi":"'free'","Alcohol":"u'none'","OutdoorSeating":"None","GoodForKids":"True","HasTV":"True","RestaurantsAttire":"'casual'","BusinessAcceptsCreditCards":"True","RestaurantsPriceRange2":"1","RestaurantsTakeOut":"True","RestaurantsDelivery":"True","DriveThru":"True","BusinessParking":"{u'valet': False, u'garage': False, u'street': None, u'lot': None, u'validated': None}"},"categories":"Tex-Mex, Tacos, Restaurants, Breakfast & Brunch, Sandwiches, Mexican, Fast Food","hours":{"Monday":"7:0-1:0","Tuesday":"7:0-1:0","Wednesday":"7:0-1:0","Thursday":"7:0-1:0","Friday":"7:0-2:0","Saturday":"7:0-2:0","Sunday":"7:0-1:0"}}
{"business_id":"iNBOlGzvHJHkmv4JL8Xlcg","name":"VE MOTORS","address":"1913 Foggy Ridge Pkwy","city":"Lutz","state":"FL","postal_code":"33559","latitude":28.1849653642,"longitude":-82.4181247,"stars":4.5,"review_count":5,"is_open":1,"attributes":null,"categories":"Auto Repair, Car Dealers, Automotive","hours":{"Monday":"8:0-17:0","Tuesday":"8:0-17:0","Wednesday":"8:0-17:0","Thursday":"8:0-17:0","Friday":"8:0-17:0","Saturday":"8:0-15:0"}}
{"business_id":"6IRlUGtb_PZRR_IXJQ7Kbg","name":"Coffee House Too Cafe","address":"501 Fairmount Ave","city":"Philadelphia","state":"PA","postal_code":"19123","latitude":39.9634343,"longitude":-75.146801,"stars":4.5,"review_count":53,"is_open":0,"attributes":{"HasTV":"False","GoodForKids":"True","Ambience":"{'romantic': False, 'intimate': False, 'classy': False, 'hipster': False, 'divey': False, 'touristy': False, 'trendy': False, 'upscale': False, 'casual': True}","NoiseLevel":"u'average'","RestaurantsTakeOut":"True","BusinessParking":"{'garage': False, 'street': True, 'validated': False, 'lot': False, 'valet': False}","GoodForMeal":"{'dessert': False, 'latenight': False, 'lunch': True, 'dinner': False, 'brunch': True, 'breakfast': True}","WheelchairAccessible":"True","OutdoorSeating":"False","WiFi":"u'no'","RestaurantsReservations":"True","BusinessAcceptsBitcoin":"False","RestaurantsAttire":"u'casual'","RestaurantsDelivery":"True","Alcohol":"u'none'","RestaurantsTableService":"True","Caters":"True","BikeParking":"False","RestaurantsPriceRange2":"2","DogsAllowed":"True","RestaurantsGoodForGroups":"True","BusinessAcceptsCreditCards":"True"},"categories":"Restaurants, Breakfast & Brunch, American (New), Cafes","hours":{"Monday":"7:0-15:0","Tuesday":"7:0-15:0","Wednesday":"7:0-15:0","Thursday":"7:0-15:0","Friday":"7:0-15:0","Saturday":"8:30-15:0","Sunday":"8:30-15:0"}}
{"business_id":"AUEqZMM7RnTPV3ZV7PwOmg","name":"Chick-fil-A","address":"9040 State Road 54","city":"Trinity","state":"FL","postal_code":"34655","latitude":28.2055299,"longitude":-82.664078,"stars":3.5,"review_count":67,"is_open":1,"attributes":{"RestaurantsTableService":"False","RestaurantsPriceRange2":"1","RestaurantsAttire":"u'casual'","BikeParking":"True","OutdoorSeating":"True","WheelchairAccessible":"True","RestaurantsGoodForGroups":"True","RestaurantsReservations":"False","WiFi":"'free'","GoodForMeal":"{'dessert': False, 'latenight': False, 'lunch': True, 'dinner': False, 'brunch': True, 'breakfast': True}","BusinessParking":"{'garage': False, 'street': False, 'validated': False, 'lot': True, 'valet': False}","GoodForKids":"True","DriveThru":"True","HasTV":"True","Caters":"True","Ambience":"{'touristy': False, 'hipster': False, 'romantic': False, 'divey': False, 'intimate': False, 'trendy': False, 'upscale': False, 'classy': False, 'casual': False}","BusinessAcceptsCreditCards":"True","RestaurantsDelivery":"False","RestaurantsTakeOut":"True","Alcohol":"u'none'"},"categories":"Restaurants, American (New), Caterers, Fast Food, Chicken Shop, Event Planning & Services, American (Traditional)","hours":{"Monday":"0:0-0:0","Tuesday":"7:0-20:0","Wednesday":"7:0-20:0","Thursday":"7:0-20:0","Friday":"11:0-21:0","Saturday":"7:0-16:0"}}
{"business_id":"MuYvPRpSUTmmr4zn_uS0Aw","name":"Orangetheory Fitness Carrollwood","address":"13122 N Dale Mabry Hwy","city":"Tampa","state":"FL","postal_code":"33618","latitude":28.0656972,"longitude":-82.5049925,"stars":3.5,"review_count":28,"is_open":1,"attributes":{"BusinessAcceptsCreditCards":"True","GoodForKids":"False","BusinessParking":"{'garage': False, 'street': False, 'validated': False, 'lot': False, 'valet': False}","ByAppointmentOnly":"True","BikeParking":"False"},"categories":"Fitness & Instruction, Gyms, Boot Camps, Trainers, Active Life, Interval Training Gyms","hours":null}
{"business_id":"YtypGQhXqKqFrK-uC_eThg","name":"Orkin","address":"3419 18th Ave S","city":"Saint Petersburg","state":"FL","postal_code":"33711","latitude":27.752205855,"longitude":-82.6799806952,"stars":2.5,"review_count":6,"is_open":1,"attributes":{"ByAppointmentOnly":"False","BusinessAcceptsCreditCards":"False"},"categories":"Home Services, Pest Control, Local Services","hours":{"Monday":"6:0-0:0","Tuesday":"6:0-0:0","Wednesday":"6:0-0:0","Thursday":"6:0-0:0","Friday":"6:0-0:0","Saturday":"6:0-0:0","Sunday":"6:0-0:0"}}
{"business_id":"cLdbIdRXI-dJUwdlvMobkg","name":"Winn Dixie","address":"8424 Sheldon Rd","city":"Tampa","state":"FL","postal_code":"33615","latitude":28.0268409533,"longitude":-82.5843045032,"stars":3.0,"review_count":10,"is_open":0,"attributes":{"BikeParking":"True","BusinessParking":"{'garage': False, 'street': False, 'validated': False, 'lot': True, 'valet': False}","BusinessAcceptsCreditCards":"True","RestaurantsPriceRange2":"2","RestaurantsTakeOut":"False"},"categories":"Photography Stores & Services, Shopping, Grocery, Food","hours":null}
{"business_id":"twficKhd2QU0N2oEraX4nw","name":"Taste of Europe","address":"4320 W 96th St","city":"Indianapolis","state":"IN","postal_code":"46268","latitude":39.9266383,"longitude":-86.2338449,"stars":4.0,"review_count":35,"is_open":0,"attributes":{"GoodForKids":"True","WiFi":"u'no'","Caters":"True","Ambience":"{'romantic': False, 'intimate': False, 'touristy': False, 'hipster': False, 'divey': False, 'classy': False, 'trendy': False, 'upscale': False, 'casual': True}","BusinessAcceptsCreditCards":"True","BusinessParking":"{'garage': False, 'street': False, 'validated': False, 'lot': True, 'valet': False}","RestaurantsPriceRange2":"2","RestaurantsDelivery":"False","HasTV":"False","RestaurantsReservations":"False","Alcohol":"u'none'","RestaurantsGoodForGroups":"True","RestaurantsAttire":"u'casual'","RestaurantsTakeOut":"True","OutdoorSeating":"True","NoiseLevel":"u'quiet'"},"categories":"Food, Specialty Food, Ethnic Food, Modern European, Restaurants","hours":{"Tuesday":"10:0-19:0","Wednesday":"10:0-19:0","Thursday":"10:0-19:0","Friday":"10:0-19:0","Saturday":"10:0-19:0","Sunday":"10:0-19:0"}}
{"business_id":"NoiUDdFFAJ6UH7_vUNnU_g","name":"TITLE Boxing Club","address":"11647 Fishers Station Dr.","city":"Fishers","state":"IN","postal_code":"46038","latitude":39.9575016,"longitude":-86.0383835,"stars":4.0,"review_count":8,"is_open":0,"attributes":{"GoodForKids":"False"},"categories":"Fitness & Instruction, Gyms, Trainers, Active Life, Boxing","hours":{"Monday":"5:30-21:0","Tuesday":"5:30-21:0","Wednesday":"5:30-21:0","Thursday":"5:30-21:0","Friday":"5:30-19:30","Saturday":"8:0-14:0","Sunday":"9:0-14:0"}}
{"business_id":"qJCooiYIlE14JyWomeUGWQ","name":"Long John Silver's","address":"2831 E 38th St","city":"Indianapolis","state":"IN","postal_code":"46218","latitude":39.825077,"longitude":-86.115403,"stars":1.0,"review_count":6,"is_open":1,"attributes":{"RestaurantsTakeOut":"True","RestaurantsReservations":"False","BusinessAcceptsCreditCards":"True","RestaurantsDelivery":"True"},"categories":"Fast Food, Seafood, Restaurants","hours":{"Monday":"10:30-22:0","Tuesday":"10:30-22:0","Wednesday":"10:30-22:0","Thursday":"10:30-22:0","Friday":"10:30-23:0","Saturday":"10:30-23:0","Sunday":"10:30-22:0"}}
{"business_id":"KyPPJWmX5KRm_FTb5brHZw","name":"Island Way Car Wash","address":"1234 Pasadena Ave S","city":"South Pasadena","state":"FL","postal_code":"33707","latitude":27.756856,"longitude":-82.736445,"stars":1.5,"review_count":18,"is_open":1,"attributes":{"BusinessAcceptsCreditCards":"True"},"categories":"Automotive, Car Wash, Auto Detailing","hours":{"Monday":"0:0-0:0","Tuesday":"0:0-0:0","Wednesday":"0:0-0:0","Thursday":"0:0-0:0","Friday":"0:0-0:0","Saturday":"0:0-0:0","Sunday":"0:0-0:0"}}
{"business_id":"oLvV8WLyIKaO9HFMf_cYfg","name":"Insomnia Cookies","address":"3417 Spruce St","city":"Philadelphia","state":"PA","postal_code":"19104","latitude":39.9510626215,"longitude":-75.1942340591,"stars":3.5,"review_count":98,"is_open":1,"attributes":{"BikeParking":"True","RestaurantsDelivery":"True","RestaurantsReservations":"False","Ambience":"{'romantic': False, 'intimate': False, 'classy': False, 'hipster': False, 'divey': False, 'touristy': False, 'trendy': False, 'upscale': False, 'casual': False}","RestaurantsAttire":"u'casual'","BusinessAcceptsCreditCards":"True","BusinessParking":"{'garage': False, 'street': True, 'validated': False, 'lot': False, 'valet': False}","RestaurantsPriceRange2":"1","Alcohol":"u'none'","RestaurantsGoodForGroups":"False","Caters":"True","WiFi":"'no'","RestaurantsTableService":"False","OutdoorSeating":"True","WheelchairAccessible":"True","RestaurantsTakeOut":"True","GoodForMeal":"{'dessert': True, 'latenight': True, 'lunch': False, 'dinner': False, 'brunch': False, 'breakfast': False}"},"categories":"Ice Cream & Frozen Yogurt, Food, Food Delivery Services, Bakeries, Desserts","hours":{"Monday":"0:0-0:0","Tuesday":"11:0-1:0","Wednesday":"11:0-1:0","Thursday":"11:0-3:0","Friday":"11:0-18:0","Saturday":"12:0-3:0","Sunday":"12:0-1:0"}}
{"business_id":"F_5ekwl8uEf8VgYxwKmqYw","name":"Great Harvest Bread Co","address":"5608 W Fairview Ave","city":"Boise","state":"ID","postal_code":"83706","latitude":43.6193511,"longitude":-116.2513244,"stars":4.5,"review_count":52,"is_open":1,"attributes":{"Alcohol":"'none'","RestaurantsDelivery":"True","RestaurantsReservations":"False","Ambience":"{'romantic': False, 'intimate': False, 'classy': False, 'hipster': False, 'divey': False, 'touristy': False, 'trendy': False, 'upscale': False, 'casual': False}","RestaurantsAttire":"'casual'","BusinessParking":"{'garage': False, 'street': False, 'validated': False, 'lot': True, 'valet': False}","GoodForKids":"True","BusinessAcceptsCreditCards":"True","RestaurantsTakeOut":"True","OutdoorSeating":"True","Caters":"True","DogsAllowed":"False","RestaurantsTableService":"False","WheelchairAccessible":"True","HappyHour":"False","NoiseLevel":"u'average'","HasTV":"False","RestaurantsPriceRange2":"1","BusinessAcceptsBitcoin":"False","BikeParking":"True","RestaurantsGoodForGroups":"False","GoodForMeal":"{'dessert': False, 'latenight': False, 'lunch': True, 'dinner': False, 'brunch': True, 'breakfast': False}","WiFi":"u'free'"},"categories":"Food, Restaurants, Sandwiches, Breakfast & Brunch, Bakeries","hours":{"Monday":"7:0-18:0","Tuesday":"7:0-18:0","Wednesday":"7:0-18:0","Thursday":"7:0-18:0","Friday":"7:0-18:0","Saturday":"7:0-17:0"}}
{"business_id":"lWedWkinrM5j13pyimbpbA","name":"Miles Table","address":"1620 South St","city":"Philadelphia","state":"PA","postal_code":"19146","latitude":39.944043,"longitude":-75.1695127,"stars":4.5,"review_count":514,"is_open":1,"attributes":{"BusinessParking":"{'garage': False, 'street': True, 'validated': False, 'lot': False, 'valet': False}","WiFi":"u'free'","OutdoorSeating":"True","Alcohol":"'beer_and_wine'","BikeParking":"True","RestaurantsDelivery":"True","RestaurantsGoodForGroups":"True","NoiseLevel":"u'average'","BYOBCorkage":"u'yes_free'","Ambience":"{'touristy': False, 'hipster': False, 'romantic': False, 'divey': False, 'intimate': False, 'trendy': False, 'upscale': False, 'classy': True, 'casual': True}","RestaurantsAttire":"u'casual'","GoodForMeal":"{'dessert': False, 'latenight': False, 'lunch': True, 'dinner': False, 'brunch': True, 'breakfast': True}","Caters":"True","RestaurantsReservations":"False","ByAppointmentOnly":"False","GoodForKids":"True","HasTV":"False","RestaurantsPriceRange2":"2","DogsAllowed":"False","RestaurantsTableService":"True","BYOB":"True","BusinessAcceptsCreditCards":"True","HappyHour":"False","WheelchairAccessible":"False","Corkage":"False","RestaurantsTakeOut":"True"},"categories":"Restaurants, Coffee & Tea, Food, Breakfast & Brunch, Event Planning & Services, American (Traditional), Caterers","hours":{"Monday":"9:0-14:0","Tuesday":"9:0-14:0","Wednesday":"9:0-14:0","Thursday":"9:0-14:0","Friday":"9:0-14:0","Saturday":"9:0-14:0","Sunday":"9:0-14:0"}}
{"business_id":"a3NtNVMQKIk_htR8MKq21g","name":"GOLFTEC Westshore","address":"4142 W Boy Scout Blvd","city":"Tampa","state":"FL","postal_code":"33609","latitude":27.964759,"longitude":-82.5124414,"stars":4.0,"review_count":6,"is_open":1,"attributes":{"GoodForKids":"True","BusinessAcceptsCreditCards":"True"},"categories":"Golf, Golf Equipment, Active Life, Shopping, Golf Lessons, Fitness & Instruction, Sporting Goods","hours":{"Monday":"8:0-20:0","Tuesday":"8:0-20:0","Wednesday":"8:0-20:0","Thursday":"8:0-20:0","Friday":"8:0-18:0","Saturday":"8:0-17:0","Sunday":"9:0-16:0"}}
{"business_id":"72Dzf_fNuT1u0MIHE5avIA","name":"Atlantic Trap & Gill Pub","address":"7704 Calgary Trail S","city":"Edmonton","state":"AB","postal_code":"T6E 4C5","latitude":53.5134737,"longitude":-113.4980969,"stars":3.5,"review_count":27,"is_open":0,"attributes":{"WiFi":"u'paid'","NoiseLevel":"u'loud'","Ambience":"{'romantic': False, 'intimate': False, 'classy': False, 'hipster': False, 'divey': False, 'touristy': False, 'trendy': False, 'upscale': False, 'casual': False}","Alcohol":"u'full_bar'","RestaurantsReservations":"False","RestaurantsPriceRange2":"2","RestaurantsAttire":"u'casual'","GoodForKids":"False","HasTV":"True","RestaurantsDelivery":"False","OutdoorSeating":"True","RestaurantsGoodForGroups":"True","BusinessParking":"{'garage': False, 'street': True, 'validated': False, 'lot': False, 'valet': False}","RestaurantsTakeOut":"True","BikeParking":"True"},"categories":"Pubs, Restaurants, Nightlife, Burgers, Seafood, Bars","hours":{"Monday":"11:0-22:0","Tuesday":"11:0-22:0","Wednesday":"11:0-0:0","Thursday":"11:0-2:0","Friday":"11:0-2:0","Saturday":"11:0-2:0","Sunday":"11:0-22:0"}}
{"business_id":"w91DxGTqV9AptyKU7zdr1g","name":"Glenora Pizza","address":"14035 105 Avenue NW","city":"Edmonton","state":"AB","postal_code":"T5N 0Z1","latitude":53.547563,"longitude":-113.565047,"stars":3.5,"review_count":5,"is_open":1,"attributes":{"OutdoorSeating":"False","Caters":"True","RestaurantsReservations":"False","RestaurantsTakeOut":"True","WheelchairAccessible":"True","BusinessParking":"{'garage': False, 'street': False, 'validated': False, 'lot': True, 'valet': False}","RestaurantsDelivery":"True","RestaurantsTableService":"False","BikeParking":"True"},"categories":"Pizza, Restaurants","hours":{"Monday":"11:0-22:0","Tuesday":"11:0-22:0","Wednesday":"11:0-22:0","Thursday":"11:0-22:0","Friday":"11:0-23:0","Saturday":"11:0-23:0","Sunday":"12:0-22:0"}}
{"business_id":"bVJjMRwarXujH95vC_7PVQ","name":"Walmart","address":"8101 W Judge Perez Dr","city":"Chalmette","state":"LA","postal_code":"70043","latitude":29.9588756,"longitude":-89.9842707313,"stars":2.0,"review_count":30,"is_open":1,"attributes":{"RestaurantsPriceRange2":"1","BikeParking":"True","Caters":"False","BusinessParking":"{'garage': False, 'street': False, 'validated': False, 'lot': True, 'valet': False}","BusinessAcceptsCreditCards":"True","RestaurantsDelivery":"True","RestaurantsTakeOut":"False"},"categories":"Food, Shopping, Fashion, Discount Store, Grocery, Electronics, Drugstores, Department Stores","hours":{"Monday":"6:0-22:0","Tuesday":"6:0-22:0","Wednesday":"6:0-22:0","Thursday":"6:0-22:0","Friday":"6:0-22:0","Saturday":"6:0-22:0","Sunday":"6:0-22:0"}}
{"business_id":"Al7JOgn9Ch-xnUSAka16kQ","name":"Ford of Port Richey","address":"10715 US Highway 19","city":"Port Richey","state":"FL","postal_code":"34668","latitude":28.312683,"longitude":-82.700607,"stars":2.0,"review_count":39,"is_open":1,"attributes":{"BusinessAcceptsCreditCards":"True","RestaurantsDelivery":"True"},"categories":"Auto Parts & Supplies, Car Dealers, Auto Repair, Automotive","hours":{"Monday":"0:0-0:0","Tuesday":"7:0-19:0","Wednesday":"7:0-19:0","Thursday":"7:0-19:0","Friday":"7:0-19:0","Saturday":"7:0-19:0","Sunday":"12:0-17:0"}}
{"business_id":"w6WduajsiHjcFN4WxgRTkA","name":"Brookmont Apartment Homes","address":"600 Red Lion Rd","city":"Philadelphia","state":"PA","postal_code":"19115","latitude":40.1070222,"longitude":-75.0391462,"stars":1.0,"review_count":5,"is_open":1,"attributes":{"BusinessAcceptsCreditCards":"True","ByAppointmentOnly":"False"},"categories":"Real Estate, Apartments, Home Services","hours":{"Monday":"9:0-18:0","Tuesday":"9:0-18:0","Wednesday":"9:0-18:0","Thursday":"9:0-18:0","Friday":"9:0-18:0","Saturday":"9:0-17:0"}}
{"business_id":"8OPE0UaZHf7vdYkgbIj8vg","name":"Fox and Hound English Pub and Grille","address":"4901 E 82nd St, Ste 900","city":"Indianapolis","state":"IN","postal_code":"46250","latitude":39.9042469,"longitude":-86.0879715,"stars":3.0,"review_count":65,"is_open":0,"attributes":{"RestaurantsTakeOut":"True","RestaurantsDelivery":"False","OutdoorSeating":"True","BusinessAcceptsCreditCards":"True","RestaurantsAttire":"u'casual'","Alcohol":"u'full_bar'","RestaurantsGoodForGroups":"True","GoodForKids":"False","RestaurantsPriceRange2":"2","NoiseLevel":"u'loud'","Ambience":"{'romantic': False, 'intimate': False, 'touristy': False, 'hipster': False, 'divey': False, 'classy': False, 'trendy': False, 'upscale': False, 'casual': True}","WiFi":"u'free'","BusinessParking":"{'garage': False, 'street': False, 'validated': False, 'lot': True, 'valet': False}","RestaurantsReservations":"True","HasTV":"True","BikeParking":"False","Caters":"False","HappyHour":"True"},"categories":"American (New), Nightlife, Bars, Restaurants, Pubs","hours":{"Monday":"11:0-2:0","Tuesday":"11:0-2:0","Wednesday":"11:0-2:0","Thursday":"11:0-2:0","Friday":"11:0-2:0","Saturday":"11:0-2:0","Sunday":"11:0-2:0"}}
{"business_id":"R8t9g5nvi7VFyS8zsgmj8Q","name":"Salt + Smoke","address":"6525 Delmar Blvd","city":"Saint Louis","state":"MO","postal_code":"63130","latitude":38.6561019915,"longitude":-90.3050984713,"stars":4.5,"review_count":1742,"is_open":1,"attributes":{"Smoking":"u'outdoor'","RestaurantsReservations":"False","WiFi":"u'free'","WheelchairAccessible":"True","HappyHour":"True","RestaurantsTakeOut":"True","RestaurantsAttire":"'casual'","Music":"{'dj': False}","DogsAllowed":"True","RestaurantsGoodForGroups":"True","Caters":"True","RestaurantsPriceRange2":"2","CoatCheck":"False","BusinessParking":"{'garage': False, 'street': True, 'validated': False, 'lot': False, 'valet': False}","OutdoorSeating":"True","BusinessAcceptsCreditCards":"True","RestaurantsTableService":"True","BikeParking":"True","BusinessAcceptsBitcoin":"False","GoodForKids":"True","Alcohol":"u'full_bar'","GoodForDancing":"False","HasTV":"True","BestNights":"{'monday': False, 'tuesday': False, 'friday': True, 'wednesday': False, 'thursday': False, 'sunday': True, 'saturday': True}","Ambience":"{'touristy': False, 'hipster': False, 'romantic': False, 'divey': False, 'intimate': False, 'trendy': False, 'upscale': False, 'classy': True, 'casual': True}","NoiseLevel":"u'average'","Corkage":"True","RestaurantsDelivery":"True","GoodForMeal":"{'dessert': None, 'latenight': False, 'lunch': True, 'dinner': True, 'brunch': False, 'breakfast': False}"},"categories":"Restaurants, American (Traditional), Barbeque, Cocktail Bars, Bars, Nightlife","hours":{"Monday":"11:30-21:0","Tuesday":"11:0-21:0","Wednesday":"11:0-21:0","Thursday":"11:0-21:0","Friday":"11:0-22:0","Saturday":"11:0-22:0","Sunday":"11:0-21:0"}}
{"business_id":"CcxdvhL7GUZ4UP1ReJsBoA","name":"Main Line Spine","address":"700 S Henderson Rd","city":"King of Prussia","state":"PA","postal_code":"19406","latitude":40.0762099,"longitude":-75.3521044,"stars":3.5,"review_count":14,"is_open":1,"attributes":{"ByAppointmentOnly":"True","BusinessAcceptsCreditCards":"True"},"categories":"Doctors, Health & Medical","hours":{"Monday":"8:30-17:0","Tuesday":"8:30-17:0","Wednesday":"8:30-17:0","Thursday":"8:30-17:0","Friday":"8:30-17:0"}}
{"business_id":"MqhQlbkYd9dShIEcPbmS_g","name":"Pho & Beyond","address":"47 Easton Rd","city":"Willow Grove","state":"PA","postal_code":"19090","latitude":40.1426935,"longitude":-75.1156564,"stars":4.0,"review_count":367,"is_open":0,"attributes":{"GoodForKids":"True","RestaurantsGoodForGroups":"True","BusinessAcceptsCreditCards":"True","Alcohol":"u'none'","RestaurantsAttire":"u'casual'","RestaurantsTakeOut":"True","BusinessParking":"{'garage': False, 'street': False, 'validated': False, 'lot': True, 'valet': False}","WiFi":"u'no'","RestaurantsPriceRange2":"2","OutdoorSeating":"False","BikeParking":"False","Caters":"False","NoiseLevel":"u'average'","Ambience":"{u'divey': False, u'hipster': False, u'casual': True, u'touristy': False, u'trendy': False, u'intimate': False, u'romantic': False, u'classy': False, u'upscale': False}","GoodForMeal":"{'dessert': False, 'latenight': False, 'lunch': True, 'dinner': True, 'brunch': False, 'breakfast': False}","RestaurantsReservations":"False","RestaurantsDelivery":"None","RestaurantsTableService":"True","HasTV":"True"},"categories":"Restaurants, Vietnamese","hours":{"Tuesday":"11:0-20:30","Wednesday":"11:0-20:30","Thursday":"11:0-20:30","Friday":"11:0-20:30","Saturday":"11:0-20:30","Sunday":"10:30-20:0"}}
{"business_id":"g3O9Y1jknYOvV7zwgIr54g","name":"Cobs Bread","address":"11956 104 Avenue NW","city":"Edmonton","state":"AB","postal_code":"T5K 0G6","latitude":53.5472724347,"longitude":-113.5279709716,"stars":4.0,"review_count":8,"is_open":1,"attributes":{"Caters":"False","BusinessParking":"{'garage': True, 'street': False, 'validated': False, 'lot': True, 'valet': False}","RestaurantsPriceRange2":"2","BikeParking":"True","RestaurantsDelivery":"False","RestaurantsTakeOut":"True"},"categories":"Food, Bakeries","hours":{"Monday":"7:0-19:0","Tuesday":"7:0-19:0","Wednesday":"7:0-19:0","Thursday":"7:0-19:0","Friday":"7:0-19:0","Saturday":"7:0-19:0","Sunday":"7:0-19:0"}}
{"business_id":"E2im8F9si5bfWj8HtehxHA","name":"Harbor Freight","address":"5211 Hickory Hollow Pkwy, Ste 103","city":"Antioch","state":"TN","postal_code":"37013","latitude":36.047915,"longitude":-86.660254,"stars":3.5,"review_count":8,"is_open":1,"attributes":null,"categories":"Automotive, Shopping, Hardware Stores, Auto Parts & Supplies, Home & Garden","hours":{"Monday":"8:0-19:0","Tuesday":"8:0-19:0","Wednesday":"8:0-19:0","Thursday":"8:0-19:0","Friday":"8:0-19:0","Saturday":"8:0-19:0","Sunday":"9:0-18:0"}}
{"business_id":"NRPOcKaY5e-Oq0iQnDWvbA","name":"Philadelphia Hair Studio","address":"744 S 6th St","city":"Philadelphia","state":"PA","postal_code":"19147","latitude":39.9400736,"longitude":-75.1527649,"stars":2.5,"review_count":22,"is_open":0,"attributes":{"ByAppointmentOnly":"False","RestaurantsPriceRange2":"2","BusinessParking":"{'garage': False, 'street': True, 'validated': False, 'lot': False, 'valet': False}","BusinessAcceptsCreditCards":"True","GoodForKids":"True"},"categories":"Hair Salons, Beauty & Spas","hours":{"Tuesday":"11:0-19:0","Wednesday":"11:0-19:0","Thursday":"11:0-20:0","Friday":"11:0-20:0","Saturday":"9:0-16:0","Sunday":"11:0-16:0"}}
{"business_id":"lGgxgTRJ2dPlnsot0fQY9Q","name":"Fantastic Sams Cut & Color","address":"36129 E Lake Rd","city":"Palm Harbor","state":"FL","postal_code":"34685","latitude":28.10107,"longitude":-82.6924918,"stars":3.5,"review_count":6,"is_open":1,"attributes":{"BusinessParking":"{'garage': False, 'street': False, 'validated': False, 'lot': False, 'valet': False}","GoodForKids":"True","RestaurantsPriceRange2":"1","ByAppointmentOnly":"False","BusinessAcceptsCreditCards":"True"},"categories":"Barbers, Hair Salons, Beauty & Spas, Hair Removal","hours":{"Monday":"8:0-21:0","Tuesday":"8:0-21:0","Wednesday":"8:0-21:0","Thursday":"8:0-21:0","Friday":"8:0-21:0","Saturday":"9:0-19:0","Sunday":"10:0-17:0"}}
{"business_id":"74fNM9S-3Beyj50CT1-2vw","name":"Avian Glen Winery","address":"3545 Almaville Rd","city":"Smyrna","state":"TN","postal_code":"37167","latitude":35.911697,"longitude":-86.552256,"stars":4.0,"review_count":12,"is_open":1,"attributes":{"RestaurantsPriceRange2":"2","RestaurantsTakeOut":"True","ByAppointmentOnly":"False","BusinessAcceptsCreditCards":"True","GoodForKids":"False","BusinessParking":"{'garage': False, 'street': True, 'validated': False, 'lot': True, 'valet': False}"},"categories":"Food, Arts & Entertainment, Wineries, Wine Tasting Room","hours":{"Monday":"12:0-20:0","Tuesday":"12:0-20:0","Wednesday":"12:0-20:0","Thursday":"12:0-20:0","Friday":"12:0-20:0","Saturday":"12:0-20:0","Sunday":"12:0-20:0"}}
{"business_id":"8Sgg_kcoO5eXysUr96IPGw","name":"Whitemarsh Jewelers","address":"4031 Skippack Pike","city":"Skippack","state":"PA","postal_code":"19474","latitude":40.223643,"longitude":-75.3997363,"stars":4.5,"review_count":10,"is_open":1,"attributes":{"ByAppointmentOnly":"False","BusinessParking":"{'garage': False, 'street': False, 'validated': False, 'lot': True, 'valet': False}","RestaurantsPriceRange2":"2","BusinessAcceptsCreditCards":"True"},"categories":"Shopping, Jewelry","hours":{"Monday":"10:0-18:0","Tuesday":"10:0-18:0","Wednesday":"10:0-18:0","Thursday":"10:0-18:0","Friday":"10:0-18:0","Saturday":"10:0-16:0"}}
{"business_id":"kEi05FoJJALcbz31dxmDEw","name":"Subway","address":"3046 Columbia Ave","city":"Franklin","state":"TN","postal_code":"37064","latitude":35.8941180367,"longitude":-86.8785420824,"stars":2.0,"review_count":6,"is_open":0,"attributes":{"RestaurantsGoodForGroups":"False","RestaurantsTakeOut":"True","BusinessAcceptsCreditCards":"True","RestaurantsPriceRange2":"1","RestaurantsDelivery":"True","Caters":"True"},"categories":"Sandwiches, Fast Food, Restaurants","hours":{"Monday":"0:0-0:0","Tuesday":"9:0-20:0","Wednesday":"9:0-20:0","Thursday":"9:0-20:0","Friday":"9:0-20:0","Saturday":"9:0-20:0","Sunday":"10:0-20:0"}}
{"business_id":"EZ_GZILKX4_rf3wPw9Rgyw","name":"China Wok","address":"3433 49th St N","city":"Saint Petersburg","state":"FL","postal_code":"33710","latitude":27.803417,"longitude":-82.699448,"stars":3.5,"review_count":21,"is_open":1,"attributes":{"Alcohol":"u'none'","BusinessAcceptsCreditCards":"True","BikeParking":"True","NoiseLevel":"u'quiet'","HasTV":"False","WiFi":"'no'","Ambience":"{'romantic': False, 'intimate': False, 'classy': False, 'hipster': False, 'divey': False, 'touristy': False, 'trendy': False, 'upscale': False, 'casual': False}","GoodForKids":"True","RestaurantsAttire":"'casual'","WheelchairAccessible":"True","RestaurantsGoodForGroups":"False","BusinessParking":"None","RestaurantsPriceRange2":"1","RestaurantsTakeOut":"True","RestaurantsReservations":"False","OutdoorSeating":"False","RestaurantsDelivery":"False","GoodForMeal":"{'dessert': False, 'latenight': False, 'lunch': False, 'dinner': False, 'brunch': False, 'breakfast': False}","RestaurantsTableService":"False","HappyHour":"False","BusinessAcceptsBitcoin":"False","DogsAllowed":"False"},"categories":"Chinese, Restaurants","hours":{"Tuesday":"10:30-22:0","Wednesday":"10:30-22:0","Thursday":"10:30-22:0","Friday":"10:30-22:30","Saturday":"10:30-22:30","Sunday":"11:0-22:0"}}
{"business_id":"6YjwEGowvkQwK_j05xzKOA","name":"Bowl","address":"148 West St","city":"Reno","state":"NV","postal_code":"89501","latitude":39.5261039,"longitude":-119.8156753,"stars":4.5,"review_count":213,"is_open":0,"attributes":{"RestaurantsGoodForGroups":"True","Ambience":"{'romantic': False, 'intimate': False, 'classy': False, 'hipster': True, 'divey': False, 'touristy': False, 'trendy': False, 'upscale': False, 'casual': False}","Caters":"False","NoiseLevel":"u'average'","BusinessAcceptsCreditCards":"True","RestaurantsReservations":"False","OutdoorSeating":"True","Alcohol":"u'beer_and_wine'","HasTV":"False","BikeParking":"True","GoodForKids":"True","RestaurantsPriceRange2":"2","RestaurantsDelivery":"False","WiFi":"u'free'","RestaurantsTakeOut":"True","RestaurantsAttire":"u'casual'","BusinessParking":"{'garage': True, 'street': True, 'validated': True, 'lot': False, 'valet': False}"},"categories":"American (New), Restaurants","hours":{"Tuesday":"17:0-21:30","Wednesday":"17:0-21:30","Thursday":"17:0-21:30","Friday":"17:0-21:30","Saturday":"17:0-21:30"}}
{"business_id":"1-zkyTwnpeZn9MmBpGSrqQ","name":"Sowelo Massage Therapy","address":"9576 State Rd","city":"Philadelphia","state":"PA","postal_code":"19114","latitude":40.05144,"longitude":-74.985347,"stars":5.0,"review_count":8,"is_open":1,"attributes":null,"categories":"Health & Medical, Massage, Massage Therapy, Beauty & Spas","hours":{"Monday":"10:0-19:0","Tuesday":"10:0-19:0","Wednesday":"10:0-19:0","Thursday":"10:0-19:0","Friday":"9:0-17:0","Saturday":"10:0-19:0"}}
{"business_id":"Ds8QNjRnPeofoYoX10o0yQ","name":"Dean Roofing Company","address":"506 N Martin Luther King Jr Ave","city":"Clearwater","state":"FL","postal_code":"33755","latitude":27.971688,"longitude":-82.792183,"stars":5.0,"review_count":6,"is_open":1,"attributes":{"ByAppointmentOnly":"False","BusinessAcceptsBitcoin":"False","BusinessAcceptsCreditCards":"True"},"categories":"Gutter Services, Roofing, Home Services, Contractors","hours":{"Monday":"6:30-16:0","Tuesday":"6:30-16:0","Wednesday":"6:30-16:0","Thursday":"6:30-16:0","Friday":"6:30-16:0"}}
{"business_id":"AgyD5Vfx6EHmGGJaIRYIMw","name":"Verve Hair Salon","address":"3237 Morgan Ford Rd","city":"Saint Louis","state":"MO","postal_code":"63116","latitude":38.5997775,"longitude":-90.2621119,"stars":5.0,"review_count":10,"is_open":1,"attributes":{"BusinessParking":"{'garage': False, 'street': False, 'validated': False, 'lot': False, 'valet': False}","BusinessAcceptsCreditCards":"True","RestaurantsPriceRange2":"2","ByAppointmentOnly":"False"},"categories":"Hair Salons, Beauty & Spas","hours":{"Tuesday":"11:0-20:0","Wednesday":"11:0-20:0","Thursday":"11:0-20:0","Friday":"10:0-17:0","Saturday":"9:0-16:0"}}
{"business_id":"mVj3ONf5ReAM4o5cBITBXg","name":"Dave Adams Windshields","address":"5006 W Fairview Ave","city":"Boise","state":"ID","postal_code":"83706","latitude":43.6193091,"longitude":-116.2438609,"stars":4.5,"review_count":26,"is_open":1,"attributes":{"BusinessAcceptsCreditCards":"True","ByAppointmentOnly":"False"},"categories":"Automotive, Auto Glass Services, Windshield Installation & Repair","hours":{"Monday":"0:0-0:0","Tuesday":"8:0-18:0","Wednesday":"8:0-18:0","Thursday":"8:0-18:0"}}
{"business_id":"IEtItWNPzkMqEui-YiAfzQ","name":"Rise Combat Sports","address":"7131 E Tanque Verde Rd","city":"Tucson","state":"AZ","postal_code":"85715","latitude":32.2508736,"longitude":-110.8400241,"stars":5.0,"review_count":8,"is_open":1,"attributes":{"GoodForKids":"True","BusinessAcceptsCreditCards":"True","BikeParking":"True","ByAppointmentOnly":"False","WheelchairAccessible":"True"},"categories":"Sports Clubs, Active Life, Boxing, Summer Camps, Trainers, Kids Activities, Kickboxing, Gyms, Fitness & Instruction, Martial Arts","hours":{"Monday":"8:45-11:30","Tuesday":"6:0-21:0","Wednesday":"8:45-11:0","Thursday":"6:0-21:0","Friday":"6:0-21:0","Saturday":"9:0-15:0"}}
{"business_id":"ERy5EsF4TkDTMBG3yg9n1g","name":"Sole Comfort","address":"8823 Ladue Rd","city":"Ladue","state":"MO","postal_code":"63124","latitude":38.6533551,"longitude":-90.3502821,"stars":3.5,"review_count":10,"is_open":1,"attributes":{"BikeParking":"True","BusinessAcceptsCreditCards":"True","BusinessAcceptsBitcoin":"False","BusinessParking":"{'garage': False, 'street': False, 'validated': False, 'lot': True, 'valet': True}","WheelchairAccessible":"True","RestaurantsPriceRange2":"2","DogsAllowed":"True"},"categories":"Shopping, Shoe Stores, Accessories, Women's Clothing, Fashion","hours":{"Monday":"10:0-18:0","Tuesday":"10:0-18:0","Wednesday":"10:0-18:0","Thursday":"10:0-18:0","Friday":"10:0-18:0","Saturday":"10:0-17:0","Sunday":"10:0-17:0"}}
{"business_id":"PRHJXtOWNmTtMJyL9N0Bzg","name":"Dynasty Hibachi Buffet","address":"6710 Clayton  Rd","city":"Saint Louis","state":"MO","postal_code":"63117","latitude":38.6340333101,"longitude":-90.3172674403,"stars":3.0,"review_count":6,"is_open":0,"attributes":{"RestaurantsPriceRange2":"2","BusinessParking":"{'garage': False, 'street': False, 'validated': False, 'lot': False, 'valet': False}","NoiseLevel":"u'average'","BusinessAcceptsCreditCards":"True","RestaurantsTakeOut":"True","GoodForKids":"True","RestaurantsAttire":"u'casual'","Ambience":"{'romantic': False, 'intimate': False, 'touristy': False, 'hipster': False, 'divey': False, 'classy': False, 'trendy': False, 'upscale': False, 'casual': False}","OutdoorSeating":"False","RestaurantsGoodForGroups":"True"},"categories":"Restaurants, Chinese","hours":null}
{"business_id":"tc26Xp1LEKhkRR7K-mmkwg","name":"American Airlines","address":"1 Terminal Dr, Ste 401","city":"Nashville","state":"TN","postal_code":"37214","latitude":36.1314892,"longitude":-86.6692337,"stars":1.5,"review_count":58,"is_open":1,"attributes":null,"categories":"Transportation, Hotels & Travel, Airlines","hours":{"Monday":"0:0-0:0","Tuesday":"0:0-0:0","Wednesday":"0:0-0:0","Thursday":"0:0-0:0","Friday":"0:0-0:0","Saturday":"0:0-0:0","Sunday":"0:0-0:0"}}
{"business_id":"z02dXyo-srW2uh9f9XU-Dg","name":"Cali Automotive","address":"10042 80 Ave","city":"Edmonton","state":"AB","postal_code":"T6E 1T5","latitude":53.5163984,"longitude":-113.490325,"stars":5.0,"review_count":10,"is_open":1,"attributes":null,"categories":"Automotive, Auto Repair","hours":{"Monday":"8:0-17:0","Tuesday":"8:0-17:0","Wednesday":"8:0-17:0","Thursday":"8:0-17:0","Friday":"8:0-17:0"}}
{"business_id":"ehsJIFVNPAD7A9mA0CbtNQ","name":"Brasa's Restaurant","address":"1791 S Highland Ave","city":"Clearwater","state":"FL","postal_code":"33756","latitude":27.931701,"longitude":-82.774573,"stars":4.0,"review_count":33,"is_open":0,"attributes":{"HasTV":"True","RestaurantsPriceRange2":"2","RestaurantsTakeOut":"True","Ambience":"{'romantic': False, 'intimate': False, 'classy': False, 'hipster': False, 'divey': False, 'touristy': False, 'trendy': False, 'upscale': False, 'casual': False}","BusinessAcceptsCreditCards":"True","BikeParking":"True","OutdoorSeating":"False","Alcohol":"'beer_and_wine'","GoodForMeal":"{'dessert': True, 'latenight': False, 'lunch': False, 'dinner': False, 'brunch': False, 'breakfast': False}","RestaurantsReservations":"False","RestaurantsDelivery":"False","RestaurantsGoodForGroups":"True","GoodForKids":"True","RestaurantsAttire":"'casual'","NoiseLevel":"u'quiet'"},"categories":"Restaurants, Latin American, Peruvian","hours":{"Wednesday":"12:0-20:30","Thursday":"12:0-20:30","Friday":"12:0-20:30","Saturday":"12:0-20:30","Sunday":"12:0-20:30"}}
{"business_id":"f02dzD75-gg4kSlsGBoxHg","name":"Whitman Cleaners","address":"1 Presidential Blvd, Ste 204","city":"Bala Cynwyd","state":"PA","postal_code":"19004","latitude":40.0100855,"longitude":-75.2107296,"stars":2.5,"review_count":5,"is_open":0,"attributes":{"BusinessAcceptsCreditCards":"True","RestaurantsPriceRange2":"1","WiFi":"u'no'","BusinessParking":"{'garage': False, 'street': False, 'validated': False, 'lot': False, 'valet': False}"},"categories":"Local Services, Dry Cleaning & Laundry, Sewing & Alterations, Laundry Services","hours":{"Monday":"7:30-18:30","Tuesday":"7:30-18:30","Wednesday":"7:30-18:30","Thursday":"7:30-18:30","Friday":"7:30-18:30","Saturday":"8:30-17:0"}}
{"business_id":"xqTKndQhNrEDKNvDBU0uQw","name":"K&A Auto Tags","address":"6150 Ridge Ave","city":"Philadelphia","state":"PA","postal_code":"19128","latitude":40.034456,"longitude":-75.2167,"stars":1.5,"review_count":14,"is_open":1,"attributes":{"BusinessAcceptsCreditCards":"False"},"categories":"Registration Services, Automotive","hours":{"Monday":"9:0-17:30","Tuesday":"9:0-17:30","Wednesday":"9:0-17:30","Thursday":"9:0-17:30","Friday":"9:0-17:30"}}
{"business_id":"JyACw43_f5t9mJ3DwxMtQw","name":"Exclusively Endodontics","address":"303 Kings Hwy S, Ste 6","city":"Cherry Hill","state":"NJ","postal_code":"08034","latitude":39.9109211655,"longitude":-75.0127189742,"stars":4.0,"review_count":8,"is_open":1,"attributes":{"ByAppointmentOnly":"True","BusinessAcceptsCreditCards":"True"},"categories":"Dentists, Endodontists, Health & Medical","hours":{"Monday":"8:0-17:0","Tuesday":"8:0-17:0","Wednesday":"8:0-17:0","Thursday":"8:0-17:0","Friday":"8:0-17:0","Saturday":"8:0-12:0"}}
{"business_id":"lIZmtQVGPHpbJ2gu9bC4lg","name":"Coupe Flowers, Inc.","address":"625 Bethlehem Pk","city":"Erdenheim","state":"PA","postal_code":"19038","latitude":40.0918713,"longitude":-75.2147025,"stars":3.5,"review_count":11,"is_open":1,"attributes":{"BusinessParking":"{'garage': False, 'street': False, 'validated': False, 'lot': True, 'valet': False}","RestaurantsPriceRange2":"2","BusinessAcceptsCreditCards":"True","WheelchairAccessible":"True","RestaurantsDelivery":"None","BikeParking":"True","RestaurantsTakeOut":"None"},"categories":"Shopping, Flowers & Gifts, Florists","hours":{"Monday":"8:30-17:0","Tuesday":"8:30-17:0","Wednesday":"8:30-17:0","Thursday":"8:30-17:0","Friday":"8:30-17:0","Saturday":"9:0-15:0"}}
{"business_id":"u4t_QpVn8f3s_CwCOay5jg","name":"The Keg Steakhouse + Bar - Windermere","address":"6320 Currents Dr Nw","city":"Edmonton","state":"AB","postal_code":"T6W 0L8","latitude":53.4360435,"longitude":-113.6095004,"stars":4.0,"review_count":25,"is_open":1,"attributes":{"RestaurantsReservations":"True","OutdoorSeating":"True","RestaurantsTakeOut":"True","RestaurantsGoodForGroups":"True","Music":"{'dj': None, 'background_music': False, 'no_music': False, 'jukebox': None, 'live': False, 'video': False, 'karaoke': None}","RestaurantsPriceRange2":"3","Ambience":"{'touristy': False, 'hipster': False, 'romantic': False, 'intimate': False, 'trendy': False, 'upscale': False, 'classy': False, 'casual': False}","GoodForMeal":"{'dessert': False, 'latenight': False, 'lunch': False, 'dinner': False, 'brunch': False, 'breakfast': False}","BestNights":"{'monday': False, 'tuesday': False, 'friday': False, 'wednesday': False, 'thursday': False, 'sunday': False, 'saturday': False}","GoodForKids":"True","BusinessParking":"{'garage': False, 'street': True, 'validated': False, 'lot': True, 'valet': False}","GoodForDancing":"False"},"categories":"Nightlife, Steakhouses, Seafood, Bars, Restaurants","hours":{"Monday":"0:0-0:0","Tuesday":"16:0-22:0","Wednesday":"16:0-22:0","Thursday":"16:0-22:0","Friday":"16:0-0:0","Saturday":"16:0-22:0","Sunday":"16:0-22:0"}}
{"business_id":"UYIr1d1zJr3jVYhXOoxyLg","name":"McDonald's","address":"8983 Jennings Station Rd","city":"Jennings","state":"MO","postal_code":"63136","latitude":38.727753,"longitude":-90.244079,"stars":1.0,"review_count":5,"is_open":1,"attributes":{"RestaurantsPriceRange2":"1","RestaurantsDelivery":"True","RestaurantsTakeOut":"True","DriveThru":"True"},"categories":"Coffee & Tea, Restaurants, Food, Fast Food, Burgers","hours":{"Monday":"5:0-1:0","Tuesday":"5:0-1:0","Wednesday":"5:0-1:0","Thursday":"5:0-4:0","Friday":"0:0-0:0","Saturday":"0:0-0:0","Sunday":"4:0-1:0"}}
{"business_id":"mNyAoSHp8JtnhUWiMuwraA","name":"Jenny's Beauty Salon","address":"1650 Gretna Blvd","city":"Harvey","state":"LA","postal_code":"70058","latitude":29.8906185631,"longitude":-90.0592408,"stars":2.5,"review_count":13,"is_open":1,"attributes":{"GoodForKids":"True","ByAppointmentOnly":"False","BusinessParking":"{'garage': False, 'street': False, 'validated': False, 'lot': False, 'valet': False}","BusinessAcceptsCreditCards":"True","RestaurantsPriceRange2":"2"},"categories":"Hair Extensions, Hair Salons, Beauty & Spas, Hair Removal, Blow Dry\/Out Services, Waxing","hours":{"Tuesday":"9:30-18:0","Wednesday":"9:30-18:0","Thursday":"9:30-18:0","Friday":"9:0-18:0","Saturday":"9:0-18:0"}}
{"business_id":"JMXnP4yUccrKY7jgddAU6g","name":"Fall Creek Veterinary Medical Center","address":"9667 Geist Crossing Dr","city":"McCordsville","state":"IN","postal_code":"46055","latitude":39.92909,"longitude":-85.916913,"stars":4.0,"review_count":26,"is_open":1,"attributes":null,"categories":"Veterinarians, Pets","hours":{"Monday":"7:0-19:0","Tuesday":"7:0-19:0","Wednesday":"7:0-18:0","Thursday":"7:0-19:0","Friday":"7:0-18:0","Saturday":"8:0-12:0"}}
{"business_id":"kUzI88lVA0iSrojyhaLJJQ","name":"63 Bistro & Catering","address":"1200 Welsh Rd, Unit C","city":"North Wales","state":"PA","postal_code":"19454","latitude":40.229028,"longitude":-75.2582305,"stars":4.5,"review_count":15,"is_open":0,"attributes":{"HasTV":"False","RestaurantsAttire":"u'casual'","RestaurantsPriceRange2":"2","RestaurantsTakeOut":"True","Ambience":"{'romantic': False, 'intimate': False, 'touristy': False, 'hipster': False, 'divey': False, 'classy': False, 'trendy': False, 'upscale': False, 'casual': True}","Alcohol":"u'none'","WiFi":"u'free'","NoiseLevel":"u'average'","Caters":"True","RestaurantsReservations":"True","GoodForKids":"True","RestaurantsDelivery":"True","BusinessParking":"{'garage': False, 'street': False, 'validated': False, 'lot': True, 'valet': False}","OutdoorSeating":"False","RestaurantsGoodForGroups":"True","BusinessAcceptsCreditCards":"True"},"categories":"Gluten-Free, Bistros, American (New), Restaurants","hours":{"Monday":"16:30-20:30","Tuesday":"16:30-20:30","Wednesday":"16:30-20:30","Thursday":"16:30-20:30","Friday":"11:30-21:30","Saturday":"12:0-21:30"}}
{"business_id":"Iq2tkmFa3XrtZotmKFPfSA","name":"Agora Food Market","address":"602 Athens St","city":"Tarpon Springs","state":"FL","postal_code":"34689","latitude":28.1548879,"longitude":-82.7604054,"stars":4.5,"review_count":11,"is_open":1,"attributes":{"BusinessAcceptsCreditCards":"True","BusinessParking":"{'garage': False, 'street': True, 'validated': False, 'lot': False, 'valet': False}","RestaurantsTakeOut":"False","RestaurantsPriceRange2":"2"},"categories":"Food, International Grocery, Imported Food","hours":{"Monday":"9:30-18:0","Tuesday":"9:30-18:0","Wednesday":"9:30-18:0","Thursday":"9:30-18:0","Friday":"9:30-18:0","Saturday":"9:30-18:0","Sunday":"11:0-18:0"}}
{"business_id":"6t5XUXz1wLOCYbau_eIjaA","name":"St. Petersburg College","address":"2465 Drew St","city":"Clearwater","state":"FL","postal_code":"33765","latitude":27.965222,"longitude":-82.7361173,"stars":3.5,"review_count":14,"is_open":1,"attributes":null,"categories":"Education, Colleges & Universities","hours":null}
{"business_id":"8t7irmp77pXOpBWdN2xbXA","name":"FedEx Office Print & Ship Center","address":"700 Olive St","city":"St Louis","state":"MO","postal_code":"63101","latitude":38.6282168,"longitude":-90.1914547,"stars":3.5,"review_count":6,"is_open":1,"attributes":{"BusinessAcceptsCreditCards":"True"},"categories":"Local Services, Signmaking, Printing Services, Notaries, Shipping Centers, Professional Services","hours":{"Monday":"7:0-19:0","Tuesday":"7:0-19:0","Wednesday":"7:0-19:0","Thursday":"7:0-19:0","Friday":"7:0-19:0"}}
{"business_id":"zbRelp0idrLenPVQKoJfVQ","name":"Red Lobster","address":"10500 E Ulmerton Rd","city":"Largo","state":"FL","postal_code":"33771","latitude":27.894097,"longitude":-82.782614,"stars":2.5,"review_count":77,"is_open":1,"attributes":{"RestaurantsAttire":"u'casual'","BusinessAcceptsCreditCards":"True","RestaurantsReservations":"False","RestaurantsTakeOut":"True","RestaurantsPriceRange2":"2","Caters":"False","GoodForKids":"True","Ambience":"{'romantic': False, 'intimate': False, 'classy': False, 'hipster': False, 'divey': False, 'touristy': False, 'trendy': False, 'upscale': False, 'casual': True}","NoiseLevel":"'quiet'","HasTV":"True","OutdoorSeating":"False","RestaurantsDelivery":"True","WheelchairAccessible":"True","Alcohol":"u'full_bar'","BikeParking":"True","GoodForMeal":"{'dessert': None, 'latenight': False, 'lunch': None, 'dinner': True, 'brunch': False, 'breakfast': False}","RestaurantsGoodForGroups":"True","DriveThru":"False","WiFi":"u'free'","BusinessParking":"{u'valet': False, u'garage': False, u'street': False, u'lot': True, u'validated': False}"},"categories":"Restaurants, American (Traditional), Seafood","hours":{"Monday":"0:0-0:0","Tuesday":"11:0-20:0","Wednesday":"11:0-21:0","Thursday":"11:0-21:0","Friday":"11:0-22:0","Saturday":"11:0-22:0","Sunday":"11:0-21:0"}}
{"business_id":"EvDZxSv_9UlAOH1NyKzb8Q","name":"Omkara Tattoo","address":"510 Washington Ave","city":"Philadelphia","state":"PA","postal_code":"19147","latitude":39.934601,"longitude":-75.152855,"stars":3.5,"review_count":26,"is_open":1,"attributes":{"BikeParking":"True","BusinessAcceptsCreditCards":"True","ByAppointmentOnly":"False","RestaurantsPriceRange2":"2","BusinessParking":"{'garage': False, 'street': False, 'validated': False, 'lot': False, 'valet': False}"},"categories":"Tattoo, Beauty & Spas","hours":{"Monday":"12:0-21:0","Tuesday":"12:0-21:0","Wednesday":"12:0-21:0","Thursday":"12:0-21:0","Friday":"12:0-21:0","Saturday":"12:0-21:0","Sunday":"12:0-21:0"}}
{"business_id":"UgEjt7G0nlcnxQqgg-InNw","name":"Bruegger's Bagels","address":"3843 E Broadway Blvd","city":"Tucson","state":"AZ","postal_code":"85716","latitude":32.2219075037,"longitude":-110.9100843966,"stars":3.0,"review_count":55,"is_open":1,"attributes":{"RestaurantsAttire":"u'casual'","WiFi":"'free'","RestaurantsTakeOut":"True","RestaurantsGoodForGroups":"True","Alcohol":"u'none'","RestaurantsPriceRange2":"1","GoodForKids":"True","NoiseLevel":"u'average'","RestaurantsReservations":"False","BusinessAcceptsCreditCards":"True","OutdoorSeating":"False","BikeParking":"True","Ambience":"{'romantic': False, 'intimate': False, 'touristy': False, 'hipster': False, 'divey': False, 'classy': False, 'trendy': False, 'upscale': False, 'casual': True}","GoodForMeal":"{'dessert': False, 'latenight': False, 'lunch': True, 'dinner': False, 'brunch': False, 'breakfast': True}","HasTV":"True","Caters":"True","RestaurantsDelivery":"True","BusinessParking":"{u'valet': False, u'garage': False, u'street': False, u'lot': True, u'validated': False}","AgesAllowed":"u'allages'"},"categories":"Food, Bagels, Restaurants, Breakfast & Brunch, Sandwiches","hours":{"Monday":"5:30-15:0","Tuesday":"5:30-15:0","Wednesday":"5:30-15:0","Thursday":"5:30-15:0","Friday":"5:30-15:0","Saturday":"5:30-15:0","Sunday":"5:30-15:0"}}
{"business_id":"7MTytl2V2lQEIG2lYdL3pg","name":"Five Guys","address":"311 E Lancaster Ave","city":"Wayne","state":"PA","postal_code":"19087","latitude":40.044349825,"longitude":-75.3799343221,"stars":2.5,"review_count":16,"is_open":0,"attributes":{"RestaurantsReservations":"False","HasTV":"False","RestaurantsGoodForGroups":"True","Alcohol":"u'none'","RestaurantsAttire":"u'casual'","BusinessAcceptsCreditCards":"True","GoodForKids":"True","RestaurantsTakeOut":"True","OutdoorSeating":"False","NoiseLevel":"u'average'","BusinessParking":"{'garage': False, 'street': False, 'validated': False, 'lot': True, 'valet': False}","GoodForMeal":"{'dessert': False, 'latenight': False, 'lunch': True, 'dinner': False, 'brunch': False, 'breakfast': False}","WiFi":"'no'","RestaurantsDelivery":"True","RestaurantsPriceRange2":"2","BikeParking":"True","Ambience":"{'romantic': False, 'intimate': False, 'touristy': False, 'hipster': False, 'divey': False, 'classy': False, 'trendy': False, 'upscale': False, 'casual': False}","Caters":"False"},"categories":"Burgers, Fast Food, Restaurants","hours":{"Monday":"0:0-0:0","Tuesday":"11:0-22:0","Wednesday":"11:0-22:0","Thursday":"11:0-22:0","Friday":"11:0-22:0","Saturday":"11:0-22:0","Sunday":"11:0-22:0"}}
{"business_id":"U00LMGWuM4nf9TqxFU1vRw","name":"Corvid's Cafe","address":"5001 Mardel Ave","city":"Saint Louis","state":"MO","postal_code":"63109","latitude":38.5934979,"longitude":-90.276385,"stars":4.5,"review_count":45,"is_open":0,"attributes":{"RestaurantsPriceRange2":"2","RestaurantsReservations":"True","WiFi":"u'free'","NoiseLevel":"'average'","RestaurantsAttire":"u'casual'","BusinessParking":"{'garage': False, 'street': True, 'validated': False, 'lot': False, 'valet': False}","OutdoorSeating":"True","RestaurantsTakeOut":"True","RestaurantsTableService":"True","RestaurantsGoodForGroups":"True","HasTV":"False","Ambience":"{'romantic': False, 'intimate': False, 'classy': False, 'hipster': False, 'divey': False, 'touristy': False, 'trendy': False, 'upscale': False, 'casual': True}","Alcohol":"u'none'","RestaurantsDelivery":"False","Caters":"True","BusinessAcceptsCreditCards":"True","GoodForMeal":"{'dessert': False, 'latenight': False, 'lunch': False, 'dinner': False, 'brunch': True, 'breakfast': False}","GoodForKids":"True","BikeParking":"True"},"categories":"Cafes, Sandwiches, Restaurants, Pizza, Food, Coffee & Tea","hours":{"Tuesday":"8:0-21:0","Wednesday":"8:0-21:0","Thursday":"8:0-21:0","Friday":"8:0-21:0","Saturday":"8:0-21:0","Sunday":"10:0-14:0"}}
{"business_id":"Bq0CQcwk5R8yhm-MGfHxCA","name":"Chef Alisah's","address":"5931 N Oracle Rd","city":"Tucson","state":"AZ","postal_code":"85704","latitude":32.314993,"longitude":-110.977809,"stars":4.5,"review_count":479,"is_open":1,"attributes":{"Alcohol":"u'none'","WiFi":"u'no'","BusinessAcceptsCreditCards":"True","GoodForKids":"True","RestaurantsAttire":"u'casual'","RestaurantsPriceRange2":"2","RestaurantsGoodForGroups":"True","BikeParking":"True","RestaurantsReservations":"True","Caters":"True","RestaurantsTableService":"True","DogsAllowed":"False","RestaurantsTakeOut":"None","NoiseLevel":"u'average'","OutdoorSeating":"None","Ambience":"{'touristy': False, 'hipster': False, 'romantic': False, 'divey': False, 'intimate': False, 'trendy': False, 'upscale': False, 'classy': True, 'casual': True}","BusinessParking":"{'garage': False, 'street': False, 'validated': False, 'lot': True, 'valet': False}","GoodForMeal":"{'dessert': False, 'latenight': False, 'lunch': True, 'dinner': True, 'brunch': False, 'breakfast': False}","HasTV":"True","RestaurantsDelivery":"True","HappyHour":"False"},"categories":"Middle Eastern, Turkish, Restaurants, Serbo Croatian, Mediterranean, Modern European","hours":{"Tuesday":"17:30-21:30","Wednesday":"17:30-21:30","Thursday":"17:30-21:30","Friday":"17:30-21:30","Saturday":"17:30-21:30","Sunday":"17:30-21:30"}}
{"business_id":"qF1NTfE0yfbTc1kb2mX1FA","name":"Pier 1","address":"2310 S Christopher Columbus","city":"Philadelphia","state":"PA","postal_code":"19148","latitude":39.9157090544,"longitude":-75.1394091693,"stars":3.0,"review_count":12,"is_open":0,"attributes":{"RestaurantsPriceRange2":"2","BikeParking":"False","BusinessAcceptsCreditCards":"True","BusinessParking":"{'garage': False, 'street': False, 'validated': False, 'lot': True, 'valet': False}"},"categories":"Furniture Stores, Home & Garden, Home Decor, Candle Stores, Shopping, Fashion, Department Stores","hours":{"Monday":"11:0-19:0","Tuesday":"11:0-19:0","Wednesday":"11:0-19:0","Thursday":"11:0-19:0","Friday":"11:0-19:0","Saturday":"11:0-19:0","Sunday":"11:0-19:0"}}
{"business_id":"cqGWcIpGUSk-YLyJnqoAgQ","name":"Gap","address":"8702 Keystone Crossing, Space 130","city":"Indianapolis","state":"IN","postal_code":"46240","latitude":39.914116,"longitude":-86.108608,"stars":2.5,"review_count":6,"is_open":1,"attributes":null,"categories":"Children's Clothing, Women's Clothing, Shopping, Fashion, Men's Clothing","hours":{"Monday":"0:0-0:0","Tuesday":"10:0-21:0","Wednesday":"10:0-21:0","Thursday":"10:0-21:0","Friday":"10:0-21:0","Saturday":"10:0-21:0","Sunday":"11:0-18:0"}}
{"business_id":"B1mZ8PEh4JYCTElXFVg8kQ","name":"Poe and Co","address":"","city":"Santa Barbara","state":"CA","postal_code":"93108","latitude":34.4381407,"longitude":-119.6151426,"stars":4.5,"review_count":9,"is_open":1,"attributes":null,"categories":"Event Planning & Services, Food Delivery Services, Food, Personal Chefs, Caterers","hours":{"Monday":"0:0-0:0","Tuesday":"0:0-0:0","Wednesday":"0:0-0:0","Thursday":"0:0-0:0","Friday":"0:0-0:0","Saturday":"0:0-0:0","Sunday":"0:0-0:0"}}
{"business_id":"Ls1HXsZlKto_c91lkyeBLA","name":"Danielle Shields Photography","address":"","city":"Nashville","state":"TN","postal_code":"37206","latitude":36.1805194,"longitude":-86.7265483,"stars":5.0,"review_count":5,"is_open":1,"attributes":{"BusinessAcceptsCreditCards":"True"},"categories":"Session Photography, Event Planning & Services, Photographers","hours":{"Monday":"9:0-19:0","Tuesday":"9:0-19:0","Wednesday":"9:0-19:0","Thursday":"9:0-19:0","Friday":"9:0-19:0","Saturday":"9:0-19:0","Sunday":"9:0-19:0"}}
{"business_id":"urLJXkopxUDhIDiy6tgWng","name":"Refine Skin Clinic","address":"106 N Latah, Ste F","city":"Boise","state":"ID","postal_code":"83706","latitude":43.6057194,"longitude":-116.2282003,"stars":5.0,"review_count":9,"is_open":1,"attributes":{"ByAppointmentOnly":"True","WheelchairAccessible":"True","BusinessParking":"{'garage': False, 'street': True, 'validated': False, 'lot': True, 'valet': False}","BusinessAcceptsCreditCards":"True","BikeParking":"True","WiFi":"u'no'","RestaurantsPriceRange2":"1","AcceptsInsurance":"False","BusinessAcceptsBitcoin":"True"},"categories":"Spray Tanning, Health & Medical, Day Spas, Acne Treatment, Skin Care, Beauty & Spas, Tanning, Medical Spas","hours":{"Monday":"0:0-0:0","Tuesday":"9:0-15:0","Wednesday":"9:0-18:0","Thursday":"9:0-18:0"}}
{"business_id":"mabS8Eq8CLjMZdLl3V7GWA","name":"Guido's Original New York Style Pizza Downtown","address":"235 N 5th St","city":"Boise","state":"ID","postal_code":"83702","latitude":43.6150183,"longitude":-116.1990435,"stars":4.5,"review_count":270,"is_open":1,"attributes":{"BikeParking":"True","GoodForKids":"True","Alcohol":"u'beer_and_wine'","BusinessParking":"{'garage': False, 'street': True, 'validated': False, 'lot': False, 'valet': False}","RestaurantsPriceRange2":"1","RestaurantsReservations":"False","HasTV":"False","NoiseLevel":"u'average'","RestaurantsGoodForGroups":"True","WiFi":"u'no'","BusinessAcceptsCreditCards":"True","RestaurantsAttire":"'casual'","OutdoorSeating":"True","RestaurantsDelivery":"True","Caters":"False","RestaurantsTakeOut":"True","RestaurantsTableService":"False","GoodForMeal":"{'dessert': False, 'latenight': False, 'lunch': True, 'dinner': True, 'brunch': False, 'breakfast': False}","Ambience":"{'touristy': False, 'hipster': None, 'romantic': False, 'divey': None, 'intimate': False, 'trendy': False, 'upscale': False, 'classy': False, 'casual': True}","WheelchairAccessible":"True"},"categories":"Italian, Salad, Pizza, Restaurants","hours":{"Monday":"0:0-0:0","Tuesday":"11:0-21:0","Wednesday":"11:0-21:0","Thursday":"11:0-21:0","Friday":"11:0-22:0","Saturday":"11:0-22:0","Sunday":"11:0-21:0"}}
{"business_id":"-dlU_Vr-5-szuLZteMWy6A","name":"Little Sicily","address":"513 Warwick Rd","city":"Somerdale","state":"NJ","postal_code":"08083","latitude":39.850398,"longitude":-75.032795,"stars":3.5,"review_count":23,"is_open":1,"attributes":{"Alcohol":"u'none'","RestaurantsTakeOut":"True","RestaurantsReservations":"False","OutdoorSeating":"False","RestaurantsDelivery":"True","BusinessAcceptsCreditCards":"True","WiFi":"u'no'","BusinessParking":"{'garage': False, 'street': False, 'validated': False, 'lot': True, 'valet': False}","RestaurantsPriceRange2":"2","RestaurantsGoodForGroups":"False","Ambience":"{'romantic': False, 'intimate': False, 'classy': False, 'hipster': False, 'divey': False, 'touristy': False, 'trendy': False, 'upscale': False, 'casual': False}","GoodForKids":"True","HasTV":"True","RestaurantsAttire":"'casual'","GoodForMeal":"{'dessert': False, 'latenight': False, 'lunch': False, 'dinner': True, 'brunch': False, 'breakfast': False}","BikeParking":"True"},"categories":"Restaurants, Sandwiches, Pizza, Chicken Wings, Specialty Food, Event Planning & Services, Caterers, Food","hours":{"Monday":"11:0-23:0","Tuesday":"11:0-23:0","Wednesday":"11:0-23:0","Thursday":"11:0-23:0","Friday":"11:0-0:0","Saturday":"11:0-0:0","Sunday":"12:0-22:0"}}
{"business_id":"_c-dGNiPXl82X0765DZsmA","name":"Jerk Hut Restaurant","address":"1241 E Fowler Ave","city":"Tampa","state":"FL","postal_code":"33612","latitude":28.0538042,"longitude":-82.4467522,"stars":3.5,"review_count":341,"is_open":1,"attributes":{"HasTV":"True","RestaurantsGoodForGroups":"True","BusinessParking":"{'garage': False, 'street': False, 'validated': False, 'lot': True, 'valet': False}","RestaurantsReservations":"True","Alcohol":"u'full_bar'","RestaurantsPriceRange2":"2","BusinessAcceptsCreditCards":"True","WiFi":"u'free'","Caters":"True","GoodForKids":"True","RestaurantsTakeOut":"True","OutdoorSeating":"False","RestaurantsAttire":"u'casual'","BikeParking":"True","HappyHour":"True","ByAppointmentOnly":"False","NoiseLevel":"u'average'","RestaurantsDelivery":"True","DogsAllowed":"False","Ambience":"{'touristy': False, 'hipster': False, 'romantic': False, 'divey': None, 'intimate': False, 'trendy': None, 'upscale': False, 'classy': False, 'casual': True}","GoodForMeal":"{'dessert': None, 'latenight': None, 'lunch': True, 'dinner': True, 'brunch': None, 'breakfast': False}"},"categories":"Soul Food, Restaurants, Caribbean, Latin American","hours":{"Monday":"11:0-21:0","Tuesday":"11:0-22:0","Wednesday":"11:0-1:0","Thursday":"11:0-0:0","Friday":"11:0-3:0","Saturday":"11:0-3:0","Sunday":"11:0-21:0"}}
{"business_id":"5IuNk11gNgjlhqEZHtNGNg","name":"Pair Restaurant","address":"601 Main St","city":"Boise","state":"ID","postal_code":"83717","latitude":43.6144271,"longitude":-116.2011439,"stars":3.5,"review_count":7,"is_open":0,"attributes":{"RestaurantsAttire":"u'casual'","BusinessParking":"{'garage': False, 'street': False, 'validated': False, 'lot': False, 'valet': False}","RestaurantsPriceRange2":"3","RestaurantsReservations":"True","BusinessAcceptsCreditCards":"True","RestaurantsGoodForGroups":"True","Alcohol":"u'full_bar'","GoodForKids":"False","OutdoorSeating":"True","RestaurantsDelivery":"False"},"categories":"American (New), Restaurants","hours":null}
{"business_id":"YE2TePip0TxcdquF5hGauQ","name":"JoJo's Hot Dogs and BBQ","address":"240 Longhollow Pike","city":"Goodlettsville","state":"TN","postal_code":"37072","latitude":36.3260267,"longitude":-86.7040631,"stars":4.5,"review_count":14,"is_open":1,"attributes":{"RestaurantsTakeOut":"True","BusinessParking":"{u'valet': False, u'garage': False, u'street': False, u'lot': True, u'validated': False}"},"categories":"Barbeque, Restaurants, Hot Dogs","hours":null}
{"business_id":"VJA6ICrhy4CgICh9ZucD2Q","name":"Revive Thrift + Boutique","address":"2202 S Vandeventer Ave","city":"Saint Louis","state":"MO","postal_code":"63110","latitude":38.6143773,"longitude":-90.2652768,"stars":4.5,"review_count":27,"is_open":0,"attributes":{"BusinessAcceptsCreditCards":"True","RestaurantsPriceRange2":"2","BusinessParking":"{'garage': False, 'street': False, 'validated': False, 'lot': True, 'valet': False}","BikeParking":"True"},"categories":"Local Services, Shopping, Community Service\/Non-Profit, Thrift Stores","hours":{"Tuesday":"10:0-18:0","Wednesday":"10:0-18:0","Thursday":"10:0-18:0","Friday":"10:0-18:0","Saturday":"10:0-17:0","Sunday":"12:0-17:0"}}
{"business_id":"2L66lIUFReYwrY6utOfXAw","name":"My Nails","address":"6310 Oaklandon Rd","city":"Indianapolis","state":"IN","postal_code":"46236","latitude":39.872315,"longitude":-85.957857,"stars":3.5,"review_count":16,"is_open":1,"attributes":{"BikeParking":"False","RestaurantsPriceRange2":"2","BusinessParking":"{'garage': False, 'street': False, 'validated': False, 'lot': False, 'valet': False}","BusinessAcceptsCreditCards":"True","ByAppointmentOnly":"False"},"categories":"Nail Salons, Beauty & Spas","hours":{"Tuesday":"9:30-19:0","Wednesday":"9:30-19:0","Thursday":"9:30-19:0","Friday":"9:30-19:0","Saturday":"9:30-18:0"}}
{"business_id":"mJEr0bmJr3rrCXtw5n5zcA","name":"Firecreek Restaurant","address":"20 E Lancaster Ave","city":"Downingtown","state":"PA","postal_code":"19335","latitude":40.0060332,"longitude":-75.7049525,"stars":2.5,"review_count":66,"is_open":0,"attributes":{"HasTV":"True","RestaurantsAttire":"u'casual'","RestaurantsReservations":"True","OutdoorSeating":"True","RestaurantsGoodForGroups":"True","NoiseLevel":"u'average'","RestaurantsDelivery":"False","GoodForKids":"False","RestaurantsPriceRange2":"3","Alcohol":"u'full_bar'","BusinessParking":"{'garage': False, 'street': False, 'validated': False, 'lot': True, 'valet': False}","WiFi":"u'no'","RestaurantsTakeOut":"True","BusinessAcceptsCreditCards":"True","HappyHour":"True","Ambience":"{'romantic': False, 'intimate': False, 'touristy': False, 'hipster': False, 'divey': False, 'classy': True, 'trendy': True, 'upscale': False, 'casual': True}"},"categories":"Food, Restaurants, American (New), American (Traditional)","hours":{"Monday":"11:30-20:0","Tuesday":"11:30-20:0","Wednesday":"11:30-21:0","Thursday":"11:30-22:0","Friday":"11:30-22:0","Saturday":"11:30-22:0","Sunday":"10:30-20:0"}}
{"business_id":"M02RJ4qUSiNpcYMBEVu1ZA","name":"Niewald Carpet Cleaning","address":"2348 N Lindbergh Blvd","city":"Saint Louis","state":"MO","postal_code":"63114","latitude":38.7040856,"longitude":-90.4088967,"stars":5.0,"review_count":5,"is_open":1,"attributes":{"BusinessAcceptsCreditCards":"True","ByAppointmentOnly":"True"},"categories":"Local Services, Home Services, Office Cleaning, Professional Services, Carpet Cleaning","hours":{"Monday":"8:0-17:0","Tuesday":"8:0-17:0","Wednesday":"8:0-17:0","Thursday":"8:0-17:0","Friday":"8:0-17:0","Saturday":"8:0-17:0"}}
{"business_id":"ymvcFCWLCitr2AQoA4gV-g","name":"The Hyde Out","address":"1809 W Platt St","city":"Tampa","state":"FL","postal_code":"33606","latitude":27.9420144715,"longitude":-82.4785577314,"stars":3.5,"review_count":127,"is_open":0,"attributes":{"RestaurantsGoodForGroups":"True","Smoking":"u'outdoor'","RestaurantsTableService":"True","RestaurantsAttire":"'casual'","HappyHour":"True","DogsAllowed":"True","RestaurantsReservations":"True","RestaurantsDelivery":"False","Caters":"False","BusinessAcceptsCreditCards":"True","HasTV":"True","RestaurantsPriceRange2":"2","BikeParking":"True","OutdoorSeating":"True","GoodForDancing":"False","NoiseLevel":"'loud'","Alcohol":"'full_bar'","BusinessAcceptsBitcoin":"False","WheelchairAccessible":"True","GoodForKids":"False","WiFi":"u'free'","RestaurantsTakeOut":"True","BusinessParking":"{'garage': False, 'street': True, 'validated': False, 'lot': False, 'valet': True}","GoodForMeal":"{'dessert': False, 'latenight': True, 'lunch': False, 'dinner': True, 'brunch': False, 'breakfast': False}","Music":"{'dj': True, 'background_music': False, 'no_music': False, 'jukebox': False, 'live': False, 'video': False, 'karaoke': False}","Ambience":"{'romantic': False, 'intimate': False, 'classy': False, 'hipster': False, 'divey': False, 'touristy': False, 'trendy': True, 'upscale': False, 'casual': False}","CoatCheck":"False","BestNights":"{'monday': False, 'tuesday': False, 'friday': True, 'wednesday': True, 'thursday': False, 'sunday': False, 'saturday': True}"},"categories":"Sports Bars, Restaurants, Music Venues, American (New), Lounges, Sushi Bars, Nightlife, Bars, Arts & Entertainment","hours":{"Tuesday":"17:0-1:0","Wednesday":"17:0-1:0","Thursday":"17:0-1:0","Friday":"17:0-3:0","Saturday":"17:0-3:0","Sunday":"11:0-22:0"}}
{"business_id":"iAeHykjHzvchWTJGgb-7qQ","name":"Regrout","address":"168 Camino De Vida, Apt A","city":"Santa Barbara","state":"CA","postal_code":"93111","latitude":34.4397139,"longitude":-119.7897007,"stars":2.0,"review_count":5,"is_open":1,"attributes":null,"categories":"Home Services, Grout Services","hours":null}
{"business_id":"uXxrl2LRH2mB1uw0GJF4GA","name":"Indo-China Market","address":"6831 Hollister Ave, Ste C","city":"Goleta","state":"CA","postal_code":"93117","latitude":34.4299179649,"longitude":-119.8671773121,"stars":3.5,"review_count":69,"is_open":1,"attributes":{"BusinessAcceptsCreditCards":"True","BusinessParking":"{'garage': False, 'street': False, 'validated': False, 'lot': True, 'valet': False}","BikeParking":"True","RestaurantsPriceRange2":"2","Caters":"False","RestaurantsTakeOut":"False"},"categories":"British, International Grocery, Grocery, Food, Ethnic Food, Herbal Shops, Restaurants, Health Markets, Specialty Food, Health & Medical","hours":{"Monday":"9:30-19:30","Tuesday":"9:30-19:30","Wednesday":"9:30-19:30","Thursday":"9:30-19:30","Friday":"9:30-19:30","Saturday":"9:30-19:30","Sunday":"10:0-19:0"}}
{"business_id":"nuZm_f6EzuJTu3iT_b6DGw","name":"Applebee's Grill + Bar","address":"10911 Starkey Rd","city":"Largo","state":"FL","postal_code":"33777","latitude":27.871699,"longitude":-82.761946,"stars":2.0,"review_count":53,"is_open":1,"attributes":{"RestaurantsReservations":"False","BusinessParking":"{'garage': False, 'street': False, 'validated': False, 'lot': True, 'valet': False}","RestaurantsAttire":"u'casual'","RestaurantsTakeOut":"True","OutdoorSeating":"True","BusinessAcceptsCreditCards":"True","GoodForKids":"True","BikeParking":"True","Alcohol":"u'full_bar'","WiFi":"'free'","NoiseLevel":"'average'","RestaurantsGoodForGroups":"True","Caters":"False","HasTV":"True","RestaurantsPriceRange2":"2","ByAppointmentOnly":"False","Music":"{'dj': False, 'background_music': False, 'no_music': False, 'jukebox': False, 'live': False, 'video': False, 'karaoke': False}","CoatCheck":"False","HappyHour":"True","RestaurantsTableService":"True","GoodForMeal":"{'dessert': True, 'latenight': None, 'lunch': True, 'dinner': True, 'brunch': None, 'breakfast': False}","Ambience":"{'touristy': False, 'hipster': False, 'romantic': False, 'divey': False, 'intimate': False, 'trendy': False, 'upscale': False, 'classy': False, 'casual': True}","RestaurantsDelivery":"True","BestNights":"{'monday': False, 'tuesday': False, 'friday': True, 'wednesday': False, 'thursday': False, 'sunday': False, 'saturday': False}"},"categories":"American (Traditional), Nightlife, Bars, Burgers, Restaurants, Steakhouses, Sports Bars","hours":{"Monday":"0:0-0:0","Tuesday":"11:0-22:0","Wednesday":"11:0-0:0","Thursday":"11:0-0:0","Friday":"11:0-2:0","Saturday":"11:0-2:0","Sunday":"11:0-0:0"}}
{"business_id":"W27TgjQ0XUaRH0qqxYv40g","name":"Union Jack's Pub","address":"2750 Limekiln Pike","city":"Glenside","state":"PA","postal_code":"19038","latitude":40.1097444,"longitude":-75.1651395,"stars":4.0,"review_count":136,"is_open":1,"attributes":{"BusinessAcceptsCreditCards":"True","RestaurantsPriceRange2":"2","RestaurantsGoodForGroups":"True","NoiseLevel":"u'loud'","Alcohol":"u'full_bar'","OutdoorSeating":"True","BikeParking":"True","HasTV":"True","WiFi":"'no'","CoatCheck":"False","RestaurantsReservations":"False","BusinessParking":"{'garage': False, 'street': True, 'validated': False, 'lot': True, 'valet': False}","Ambience":"{'touristy': False, 'hipster': False, 'romantic': False, 'divey': None, 'intimate': False, 'trendy': False, 'upscale': False, 'classy': False, 'casual': True}","GoodForDancing":"False","BestNights":"{'monday': False, 'tuesday': True, 'friday': True, 'wednesday': False, 'thursday': False, 'sunday': False, 'saturday': True}","Music":"{'dj': False, 'background_music': False, 'no_music': False, 'jukebox': True, 'live': False, 'video': False, 'karaoke': False}","HappyHour":"True"},"categories":"Nightlife, Bars, Pubs","hours":{"Wednesday":"12:0-22:0","Thursday":"12:0-23:0","Friday":"12:0-23:30","Saturday":"12:0-23:30","Sunday":"12:0-22:0"}}